location_key,location_query,postal_code,latitude,longitude
ZEHNDER ROAD,ZEHNDER%20ROAD,117702,1.282192047,103.7865084
NEO PEE TECK LANE,NEO%20PEE%20TECK%20LANE,119053,1.292876054,103.7695185
TURQUOISE,TURQUOISE,98395,1.242440747,103.8367551
BUKIT TERESA ROAD,BUKIT%20TERESA%20ROAD,99758,1.27624326,103.8251562
ARTRA,ARTRA,158745,1.290030671,103.8171853
YONG SIAK STREET,YONG%20SIAK%20STREET,168652,1.282834476,103.830077
CITY GATE,CITY%20GATE,199597,1.302347543,103.86226
FABER HILLS,FABER%20HILLS,129280,1.319756573,103.7571542
THE COAST AT SENTOSA COVE,THE%20COAST%20AT%20SENTOSA%20COVE,98450,1.245288947,103.8435457
THE FOLIAGE,THE%20FOLIAGE,118709,1.291020313,103.7740571
MARINA BAY SUITES,MARINA%20BAY%20SUITES,18965,1.28034498,103.8521433
SPOTTISWOODE SUITES,SPOTTISWOODE%20SUITES,88661,1.276035116,103.837502
SENTOSA COVE,SENTOSA%20COVE,98537,1.246940686,103.8399861
HARBOURLIGHTS,HARBOURLIGHTS,98865,1.266560106,103.8228925
V ON SHENTON,V%20ON%20SHENTON,68814,1.277083407,103.8491813
SPRINGWOOD,SPRINGWOOD,117992,1.280630734,103.7917581
CLAVON,CLAVON,129964,1.308512377,103.767086
BURLINGTON SQUARE,BURLINGTON%20SQUARE,189649,1.30222952,103.8525381
MOUNT FABER LODGE,MOUNT%20FABER%20LODGE,99200,1.26890032,103.8246355
CHWEE CHIAN VIEW,CHWEE%20CHIAN%20VIEW,119709,1.28031656,103.7877918
ONE SHENTON,ONE%20SHENTON,68803,1.279294914,103.8505526
THE VISION,THE%20VISION,128051,1.298564707,103.7650445
FABER GREEN,FABER%20GREEN,91003,1.279010586,103.8175631
MIDTOWN BAY,MIDTOWN%20BAY,189770,1.296356664,103.8573688
HERITAGE VIEW,HERITAGE%20VIEW,138680,1.304416722,103.7842786
COVE DRIVE,COVE%20DRIVE,98053,1.243209324,103.8378255
CARABELLE,CARABELLE,127023,1.317499301,103.756437
THE PEARL @ MOUNT FABER,THE%20PEARL%20%40%20MOUNT%20FABER,99209,1.270368054,103.8247119
BUONA VISTA GARDENS,BUONA%20VISTA%20GARDENS,117688,1.283302915,103.7863883
OCEAN 8,OCEAN%208,98512,1.252485841,103.8458845
FRAGRANCE COURT,FRAGRANCE%20COURT,117752,1.277285588,103.7931222
LIIV RESIDENCES,LIIV%20RESIDENCES,117368,1.288513699,103.7766264
THE CREST,THE%20CREST,159024,1.292899047,103.8195665
SUNSHINE PLAZA,SUNSHINE%20PLAZA,189652,1.300369965,103.8510688
FLYNN PARK,FLYNN%20PARK,117757,1.278915042,103.7927439
FABER GROVE,FABER%20GROVE,129225,1.322667149,103.7560805
WEST COAST VIEW,WEST%20COAST%20VIEW,127180,1.294948173,103.7665829
LAKESHORE VIEW,LAKESHORE%20VIEW,98319,1.249604627,103.8380475
ALTEZ,ALTEZ,79717,1.274617941,103.8443196
BOON SING BUILDING,BOON%20SING%20BUILDING,188952,1.29702151,103.8553862
KENTVIEW PARK,KENTVIEW%20PARK,118892,1.281916944,103.7857077
ISLAND VIEW,ISLAND%20VIEW,119522,1.279407645,103.7936575
ALEX RESIDENCES,ALEX%20RESIDENCES,158744,1.290569997,103.8190008
THE GRANDHILL,THE%20GRANDHILL,118860,1.281626321,103.7848695
DOVER PARKVIEW,DOVER%20PARKVIEW,138687,1.306093948,103.7843457
MARINA BAY RESIDENCES,MARINA%20BAY%20RESIDENCES,18980,1.279625799,103.8549872
FOOK HAI BUILDING,FOOK%20HAI%20BUILDING,58727,1.284976937,103.8464325
ICON,ICON,78878,1.275169995,103.8444963
SUNGROVE,SUNGROVE,127889,1.312173497,103.7566303
FABER TERRACE,FABER%20TERRACE,129056,1.321424397,103.7563737
WEST SHORE RESIDENCES,WEST%20SHORE%20RESIDENCES,118608,1.281261367,103.7846534
NEIL ROAD,NEIL%20ROAD,88805,1.280153929,103.8437427
ICON @ PASIR PANJANG,ICON%20%40%20PASIR%20PANJANG,118579,1.279486701,103.7857562
PASIR PANJANG LODGE,PASIR%20PANJANG%20LODGE,118722,1.291554381,103.7723799
ROBINSON SUITES,ROBINSON%20SUITES,68882,1.280934745,103.8498225
WEST COAST GROVE,WEST%20COAST%20GROVE,127834,1.314373625,103.7560835
JULUCA,JULUCA,118712,1.291237667,103.7726444
PASIR PANJANG ROAD,PASIR%20PANJANG%20ROAD,118598,1.280147002,103.7855893
THE ESTIVA,THE%20ESTIVA,117482,1.28783491,103.7783433
RIVER PLACE,RIVER%20PLACE,169661,1.290242596,103.8413851
QUEENSWAY TOWER,QUEENSWAY%20TOWER,149053,1.287595189,103.8033973
HERITAGE PLACE,HERITAGE%20PLACE,188108,1.298573578,103.8564154
MONTEREY PARK CONDOMINIUM,MONTEREY%20PARK%20CONDOMINIUM,127476,1.316901563,103.7536389
QUEENS PEAK,QUEENS%20PEAK,149457,1.294336667,103.8070201
JUBILEE RESIDENCE,JUBILEE%20RESIDENCE,118695,1.289433491,103.7753858
THE SAIL @ MARINA BAY,THE%20SAIL%20%40%20MARINA%20BAY,18987,1.280769435,103.8526586
KENT RIDGE HILL RESIDENCES,KENT%20RIDGE%20HILL%20RESIDENCES,118167,1.280945772,103.7898661
BAYVILLE CONDOMINIUM,BAYVILLE%20CONDOMINIUM,118166,1.281158608,103.78776
TERESA VILLE,TERESA%20VILLE,99310,1.276003419,103.8240247
GOLD COAST CONDOMINIUM,GOLD%20COAST%20CONDOMINIUM,118699,1.290546921,103.774606
TERESA 8,TERESA%208,99799,1.276637261,103.8258065
INTERNATIONAL PLAZA,INTERNATIONAL%20PLAZA,79903,1.275856669,103.8459551
PEOPLE'S PARK CENTRE,PEOPLE%27S%20PARK%20CENTRE,58359,1.285757742,103.8439298
ONZE @ TANJONG PAGAR,ONZE%20%40%20TANJONG%20PAGAR,89218,1.274849748,103.8421848
THE BEACON,THE%20BEACON,423728,1.307134963,103.9049577
THE ARRIS,THE%20ARRIS,88271,1.275501069,103.841596
PASIR PANJANG COURT,PASIR%20PANJANG%20COURT,118977,1.292331966,103.7726177
THE PEAK@BALMEG,THE%20PEAK%40BALMEG,119919,1.282457471,103.7838356
PEOPLE'S PARK COMPLEX,PEOPLE%27S%20PARK%20COMPLEX,50032,1.284858608,103.8425788
HARBOUR VIEW GARDENS,HARBOUR%20VIEW%20GARDENS,118582,1.278920373,103.7853519
RIA APARTMENTS,RIA%20APARTMENTS,119462,1.276543091,103.7925204
JUBILEE ROAD,JUBILEE%20ROAD,128584,1.30600961,103.7674799
EDEN RESIDENCES CAPITOL,EDEN%20RESIDENCES%20CAPITOL,178884,1.292987831,103.8510468
THE PARC CONDOMINIUM,THE%20PARC%20CONDOMINIUM,127163,1.310460941,103.7620344
SPRINGDEW TERRACE,SPRINGDEW%20TERRACE,119310,1.2780902,103.7912457
THE SPECTRUM,THE%20SPECTRUM,117506,1.291448827,103.7685852
WEST COAST ROAD,WEST%20COAST%20ROAD,127375,1.308683191,103.7614147
THE BERTH BY THE COVE,THE%20BERTH%20BY%20THE%20COVE,98630,1.249221548,103.8463164
CHELSEA VILLAGE,CHELSEA%20VILLAGE,119359,1.27917762,103.7896192
BALMEG HILL,BALMEG%20HILL,119918,1.282784721,103.7840459
PASIR VIEW PARK,PASIR%20VIEW%20PARK,118571,1.27880965,103.7875539
FABER WALK,FABER%20WALK,128968,1.321799295,103.7554176
TIONG BAHRU ESTATE,TIONG%20BAHRU%20ESTATE,160055,1.284413965,103.8341355
SANDY ISLAND,SANDY%20ISLAND,98240,1.242359916,103.8377831
THE STELLAR,THE%20STELLAR,127302,1.293495151,103.767442
VILLAGE @ PASIR PANJANG,VILLAGE%20%40%20PASIR%20PANJANG,118797,1.290870742,103.7700666
THE TRILINQ,THE%20TRILINQ,128810,1.318468304,103.7616141
WEST BAY CONDOMINIUM,WEST%20BAY%20CONDOMINIUM,128040,1.299199857,103.7653883
THE BENCOOLEN,THE%20BENCOOLEN,189648,1.301632318,103.8533426
CORAL ISLAND,CORAL%20ISLAND,98551,1.250774394,103.8453741
COMMONWEALTH TOWERS,COMMONWEALTH%20TOWERS,149740,1.295463429,103.8065158
KASARA,KASARA,98187,1.250049054,103.8416334
PALM MANSIONS,PALM%20MANSIONS,425777,1.314075311,103.9151967
TANGLIN VIEW,TANGLIN%20VIEW,159015,1.292065647,103.8172952
EALINE PARK,EALINE%20PARK,118927,1.292292333,103.7712988
NEWEST,NEWEST,128020,1.316413219,103.7574513
THE INFINITI,THE%20INFINITI,127712,1.31953454,103.7550411
SEAHILL,SEAHILL,126768,1.298846987,103.7649177
COVE WAY,COVE%20WAY,98275,1.24040896,103.83796
WESTMONT,WESTMONT,127300,1.292883662,103.767231
ALEXIS,ALEXIS,159948,1.291303792,103.807351
CLYDESVIEW,CLYDESVIEW,159192,1.294092228,103.8181076
BUKIT TERESA CLOSE,BUKIT%20TERESA%20CLOSE,99777,1.276155912,103.825592
REGENCY SUITES,REGENCY%20SUITES,169279,1.284341046,103.8291385
SIOK WAN CLOSE,SIOK%20WAN%20CLOSE,118197,1.277868842,103.7891263
OCEAN DRIVE,OCEAN%20DRIVE,98228,1.249728569,103.842004
DORSETT RESIDENCES,DORSETT%20RESIDENCES,88764,1.280045293,103.8403587
GUOK AVENUE,GUOK%20AVENUE,119634,1.291125775,103.7730324
THE M,THE%20M,188947,1.297976405,103.8558935
WEST COAST GARDENS,WEST%20COAST%20GARDENS,127910,1.315353851,103.7573262
STIRLING RESIDENCES,STIRLING%20RESIDENCES,148962,1.291149506,103.8045736
THE PEAK,THE%20PEAK,118454,1.279958361,103.7933301
MARINA ONE RESIDENCES,MARINA%20ONE%20RESIDENCES,18979,1.277224256,103.8536949
THE ROCHESTER RESIDENCES,THE%20ROCHESTER%20RESIDENCES,138638,1.305210734,103.7883406
SPOTTISWOODE RESIDENCES,SPOTTISWOODE%20RESIDENCES,88660,1.275271152,103.8368322
PARK WEST,PARK%20WEST,127650,1.317090369,103.7550958
EMERALD GARDEN,EMERALD%20GARDEN,69468,1.282336908,103.8463263
WATERLOO VIEW,WATERLOO%20VIEW,187963,1.300763784,103.8527198
PRINCIPAL GARDEN,PRINCIPAL%20GARDEN,159029,1.292375067,103.8228367
TEXTILE CENTRE,TEXTILE%20CENTRE,199018,1.303624361,103.8614129
BUONA LODGE,BUONA%20LODGE,117686,1.281686596,103.7867231
PARC CLEMATIS,PARC%20CLEMATIS,128794,1.316891294,103.759789
ASCENTIA SKY,ASCENTIA%20SKY,158748,1.290944732,103.8170001
VENTANA VILLAS,VENTANA%20VILLAS,118908,1.281643869,103.7855565
CLEMENTIWOODS CONDOMINIUM,CLEMENTIWOODS%20CONDOMINIUM,126819,1.296737347,103.7681937
FABER DRIVE,FABER%20DRIVE,129334,1.318085646,103.7576788
MARINA COLLECTION,MARINA%20COLLECTION,98329,1.244201733,103.8398123
AVENUE SOUTH RESIDENCE,AVENUE%20SOUTH%20RESIDENCE,168878,1.276748602,103.8297034
THE VERANDAH RESIDENCES,THE%20VERANDAH%20RESIDENCES,117629,1.279287504,103.7847268
BLAIR PLAIN CONSERVATION AREA,BLAIR%20PLAIN%20CONSERVATION%20AREA,89932,1.276280097,103.8360652
LE HILL CONDOMINIUM,LE%20HILL%20CONDOMINIUM,118896,1.283184548,103.7846847
THE REGENCY AT TIONG BAHRU,THE%20REGENCY%20AT%20TIONG%20BAHRU,169907,1.282151545,103.8301016
GRYPHON TERRACE,GRYPHON%20TERRACE,118689,1.289736005,103.7762095
YONG SIAK VIEW,YONG%20SIAK%20VIEW,168652,1.282834476,103.830077
GOLDEN MILE COMPLEX,GOLDEN%20MILE%20COMPLEX,199588,1.302924747,103.8653732
MERINO CRESCENT,MERINO%20CRESCENT,149162,1.290669223,103.8057659
THE CLEMENT CANOPY,THE%20CLEMENT%20CANOPY,129961,1.306676248,103.7685369
SPOTTISWOODE PARK,SPOTTISWOODE%20PARK,80101,1.275241413,103.8360458
THE CASSANDRA,THE%20CASSANDRA,118549,1.27686888,103.7931768
PEPYS HILL CONDOMINIUM,PEPYS%20HILL%20CONDOMINIUM,118450,1.277746374,103.7937839
BANYAN PARK,BANYAN%20PARK,119788,1.279602029,103.7891968
THE OCEANFRONT @ SENTOSA COVE,THE%20OCEANFRONT%20%40%20SENTOSA%20COVE,98535,1.244403038,103.8425185
ECHELON,ECHELON,158750,1.290963991,103.8179899
VILLA DE WEST,VILLA%20DE%20WEST,118719,1.290725291,103.7721145
PARADISE ISLAND,PARADISE%20ISLAND,98428,1.24912344,103.8448218
HARVEST MANSIONS,HARVEST%20MANSIONS,169638,1.289830342,103.8318434
CONCOURSE SKYLINE,CONCOURSE%20SKYLINE,199599,1.300703934,103.8618611
24 ONE RESIDENCES,24%20ONE%20RESIDENCES,118596,1.280181198,103.7848247
TANQUEELAN SUITES,TANQUEELAN%20SUITES,188098,1.298310833,103.8566523
SHEPHERD'S HILL ESTATE,SHEPHERD%27S%20HILL%20ESTATE,149863,1.290006117,103.8056539
BLUE HORIZON,BLUE%20HORIZON,128050,1.297436971,103.7655473
PASIR PANJANG GARDENS,PASIR%20PANJANG%20GARDENS,118609,1.280752543,103.7839876
VENTANA,VENTANA,118902,1.282739076,103.784814
EMERALD PARK,EMERALD%20PARK,169586,1.289481986,103.8300854
PALISADES,PALISADES,118635,1.287118754,103.7801294
TWIN VEW,TWIN%20VEW,126756,1.31968768,103.7526994
YONG SIAK COURT,YONG%20SIAK%20COURT,168649,1.282635886,103.8301863
TWIN REGENCY,TWIN%20REGENCY,169278,1.284776734,103.828459
PALM GREEN,PALM%20GREEN,117621,1.2912342,103.7693303
JERVOIS LANE,JERVOIS%20LANE,159189,1.294427112,103.8186912
LORONG SARI,LORONG%20SARI,119110,1.280309098,103.7875018
THE LANDMARK,THE%20LANDMARK,169878,1.286170845,103.8395676
VARSITY PARK CONDOMINIUM,VARSITY%20PARK%20CONDOMINIUM,127451,1.294641451,103.7683937
THE FORESTA @ MOUNT FABER,THE%20FORESTA%20%40%20MOUNT%20FABER,98752,1.270630351,103.8140749
CRYSTAL HEIGHTS,CRYSTAL%20HEIGHTS,118885,1.281560042,103.7857096
SKY EVERTON,SKY%20EVERTON,89396,1.275889768,103.8381517
WATERFRONT @ FABER,WATERFRONT%20%40%20FABER,128985,1.322996559,103.7552048
CHINATOWN PLAZA,CHINATOWN%20PLAZA,89673,1.278652532,103.8421339
CORALS AT KEPPEL BAY,CORALS%20AT%20KEPPEL%20BAY,98013,1.264496996,103.8163099
LANDRIDGE CONDOMINIUM,LANDRIDGE%20CONDOMINIUM,118572,1.279250564,103.7871543
SEVEN PALMS SENTOSA COVE,SEVEN%20PALMS%20SENTOSA%20COVE,98221,1.239926934,103.8313832
THE CLIFT,THE%20CLIFT,69047,1.279400143,103.8473296
BOTANNIA,BOTANNIA,797393,1.398047835,103.8747149
THE VILLAS @ SENTOSA COVE,THE%20VILLAS%20%40%20SENTOSA%20COVE,98582,1.251949759,103.8449677
ALESSANDREA,ALESSANDREA,159967,1.290505663,103.8225873
SKYSUITES@ANSON,SKYSUITES%40ANSON,79718,1.274643978,103.8447416
SEASCAPE,SEASCAPE,98309,1.239948547,103.8382528
BANYAN CONDOMINIUM,BANYAN%20CONDOMINIUM,119749,1.278465305,103.7888298
NORMANTON PARK,NORMANTON%20PARK,119021,1.287234864,103.792795
HORIZON RESIDENCES,HORIZON%20RESIDENCES,118864,1.281937175,103.7839697
JALAN PASIR RIA,JALAN%20PASIR%20RIA,119462,1.276543091,103.7925204
MERAPRIME,MERAPRIME,169568,1.287058598,103.8277875
CENTRAL GREEN CONDOMINIUM,CENTRAL%20GREEN%20CONDOMINIUM,169483,1.284513342,103.8277115
WEST POINT PEARL GARDEN,WEST%20POINT%20PEARL%20GARDEN,127392,1.311400917,103.7580668
REGENT PARK,REGENT%20PARK,128805,1.317567924,103.7609501
QUEENS,QUEENS,148957,1.292674254,103.8066632
ONE-NORTH RESIDENCES,ONE-NORTH%20RESIDENCES,138643,1.301733345,103.7900009
THE INTERLACE,THE%20INTERLACE,109691,1.282201354,103.8030238
PASIR PANJANG HILL,PASIR%20PANJANG%20HILL,118733,1.291542119,103.7711651
WESTSIDE 33,WESTSIDE%2033,127325,1.294358647,103.7664752
THE ANCHORAGE,THE%20ANCHORAGE,159962,1.289207409,103.8048573
SKYLINE RESIDENCES,SKYLINE%20RESIDENCES,109030,1.271675786,103.8076348
LYNNSVILLE 331,LYNNSVILLE%20331,117468,1.288883467,103.7772644
SEASUITES,SEASUITES,118617,1.282420833,103.7831427
PARC REGENCY,PARC%20REGENCY,118652,1.288136249,103.7781158
WHISTLER GRAND,WHISTLER%20GRAND,126757,1.319681942,103.7537806
HARBOUR SUITES,HARBOUR%20SUITES,99454,1.272242893,103.827479
ONE PEARL BANK,ONE%20PEARL%20BANK,169016,1.282961487,103.8398146
VIVA VISTA,VIVA%20VISTA,118136,1.279803223,103.7859096
MARGARET VILLE,MARGARET%20VILLE,149312,1.299517208,103.8028069
WESTCOVE CONDOMINIUM,WESTCOVE%20CONDOMINIUM,128044,1.298235909,103.7662346
REFLECTIONS AT KEPPEL BAY,REFLECTIONS%20AT%20KEPPEL%20BAY,98419,1.267144993,103.8110023
THE ORIENT,THE%20ORIENT,118610,1.280947718,103.7835466
WHITEHAVEN,WHITEHAVEN,118659,1.289855927,103.7774932
HARBOUR VIEW TOWERS,HARBOUR%20VIEW%20TOWERS,109258,1.272012388,103.8085143
JALAN PELEPAH,JALAN%20PELEPAH,119412,1.274775029,103.7945711
TREASURE PLACE,TREASURE%20PLACE,119174,1.28055329,103.7893019
PARC IMPERIAL,PARC%20IMPERIAL,118618,1.281350127,103.7836422
EON SHENTON,EON%20SHENTON,79118,1.273860928,103.8462137
SELEGIE CENTRE,SELEGIE%20CENTRE,188332,1.304085658,103.8500142
PASIR PANJANG DRIVE,PASIR%20PANJANG%20DRIVE,118921,1.29198749,103.7710002
76 SHENTON,76%20SHENTON,79119,1.273476633,103.8455532
THE BERTHSIDE,THE%20BERTHSIDE,98615,1.250701692,103.8471094
LUXE VILLE,LUXE%20VILLE,118669,1.290039227,103.7772778
DUO RESIDENCES,DUO%20RESIDENCES,189350,1.29916296,103.8578595
THE MAYLEA,THE%20MAYLEA,117494,1.280515147,103.7854434
SOUTH BEACH RESIDENCES,SOUTH%20BEACH%20RESIDENCES,189762,1.294385184,103.8560298
SARHAD VILLE,SARHAD%20VILLE,119161,1.280711781,103.7885364
THE CLEMENTVALE,THE%20CLEMENTVALE,126874,1.307525827,103.7642079
WEST PARK REGENCY,WEST%20PARK%20REGENCY,118687,1.290362547,103.7767066
HUNDRED TREES,HUNDRED%20TREES,128019,1.314967507,103.7591829
MENDON SPRING,MENDON%20SPRING,117526,1.278668453,103.7877671
BIJOU,BIJOU,119554,1.276853864,103.7917422
WESTPEAK TERRACE,WESTPEAK%20TERRACE,127141,1.309252064,103.7614885
THE AZURE,THE%20AZURE,98584,1.25150382,103.8480251
D' HILLSIDE LOFT,D%27%20HILLSIDE%20LOFT,118853,1.281221399,103.7853482
BAROSSA GARDENS,BAROSSA%20GARDENS,118609,1.280752543,103.7839876
PARC RIVIERA,PARC%20RIVIERA,126754,1.320614301,103.7532909
WEST-N,WEST-N,117452,1.282247016,103.7834536
SPOTTISWOODE 18,SPOTTISWOODE%2018,88642,1.275595285,103.8375599
CRAIG PLACE,CRAIG%20PLACE,89692,1.27804079,103.8423714
THE 101,THE%20101,189703,1.297757856,103.8569556
MURANO,MURANO,118693,1.289362706,103.7755541
THE PLAZA,THE%20PLAZA,199590,1.299756944,103.8606687
JALAN MAT JAMBOL,JALAN%20MAT%20JAMBOL,119514,1.277982338,103.7915572
SOUTHBANK,SOUTHBANK,198784,1.306311852,103.8643085
WISHART ROAD,WISHART%20ROAD,98730,1.270948983,103.8135717
ENG HOON MANSIONS,ENG%20HOON%20MANSIONS,169767,1.283505739,103.8344928
DOMAIN 21,DOMAIN%2021,169814,1.291840342,103.8255125
WALLICH RESIDENCE,WALLICH%20RESIDENCE,78882,1.27711736,103.8457902
CARIBBEAN AT KEPPEL BAY,CARIBBEAN%20AT%20KEPPEL%20BAY,98651,1.266160973,103.8151648
VILLAS SIX,VILLAS%20SIX,276581,1.322671187,103.7913982
TERESA VILLAS,TERESA%20VILLAS,99765,1.276335576,103.8249923
TELOK BLANGAH HOUSE,TELOK%20BLANGAH%20HOUSE,98829,1.266180555,103.8233854
FABER AVENUE,FABER%20AVENUE,129531,1.31749362,103.758566
LUMIERE,LUMIERE,520167,1.343113656,103.9585542
THE SORRENTO,THE%20SORRENTO,127365,1.295763136,103.7661223
COVE GROVE,COVE%20GROVE,98212,1.239876866,103.835137
THE METROPOLITAN CONDOMINIUM,THE%20METROPOLITAN%20CONDOMINIUM,158747,1.290477342,103.8160165
WESTRIDGE WALK,WESTRIDGE%20WALK,117837,1.277743295,103.7903601
HIGHLINE RESIDENCES,HIGHLINE%20RESIDENCES,169280,1.284013887,103.8297566
FABER CREST,FABER%20CREST,129195,1.323570722,103.7566656
DRAYCOTT DRIVE,DRAYCOTT%20DRIVE,259428,1.309702238,103.8307091
OWEN ROAD,OWEN%20ROAD,210044,1.315527415,103.8503887
CLIVEDEN AT GRANGE,CLIVEDEN%20AT%20GRANGE,249595,1.299738447,103.8258681
NASSIM ROAD,NASSIM%20ROAD,258423,1.311721261,103.8194958
8 HULLET,8%20HULLET,229160,1.30301094,103.8387183
OLEANAS RESIDENCE,OLEANAS%20RESIDENCE,239347,1.293449616,103.8388889
JALAN TEMPUA,JALAN%20TEMPUA,298986,1.323939269,103.81959
NAMLY VIEW,NAMLY%20VIEW,267090,1.324411273,103.7981021
MARYLAND ESTATE,MARYLAND%20ESTATE,277525,1.320970935,103.7857521
KING'S GARDEN,KING%27S%20GARDEN,268018,1.317865661,103.802722
EDENZ SUITES,EDENZ%20SUITES,398425,1.312869316,103.8857531
THE BALMORAL SPRING,THE%20BALMORAL%20SPRING,259888,1.315466362,103.8342958
BARKER ROAD,BARKER%20ROAD,309936,1.31915766,103.834516
SCOTTS HIGHPARK,SCOTTS%20HIGHPARK,228239,1.312365177,103.8367225
THE LINC,THE%20LINC,308347,1.314792984,103.8425724
CUBE 8,CUBE%208,298130,1.328363609,103.8414184
THE ELEMENT @ STEVENS,THE%20ELEMENT%20%40%20STEVENS,257873,1.318106484,103.8261656
CORONATION ROAD,CORONATION%20ROAD,269497,1.323015777,103.8042153
JERVOIS LODGE,JERVOIS%20LODGE,249034,1.294193092,103.8232472
HULLET ROAD,HULLET%20ROAD,229159,1.303148726,103.8382745
J C DRAYCOTT,J%20C%20DRAYCOTT,259426,1.309875389,103.8309789
DEVONSHIRE RESIDENCES,DEVONSHIRE%20RESIDENCES,239855,1.298846472,103.837352
KING'S LODGE,KING%27S%20LODGE,268075,1.321874063,103.8095134
PULLMAN RESIDENCES NEWTON,PULLMAN%20RESIDENCES%20NEWTON,309421,1.31467263,103.8390108
THE CALLISTA,THE%20CALLISTA,328702,1.327515192,103.8628256
BALMORAL 8,BALMORAL%208,259792,1.314516927,103.8322069
NAMLY GARDEN,NAMLY%20GARDEN,267342,1.32464358,103.7969497
NEWTON ROAD,NEWTON%20ROAD,229846,1.311393202,103.843139
FORD AVENUE,FORD%20AVENUE,268712,1.313980319,103.7968474
BOTANIC GARDENS MANSION,BOTANIC%20GARDENS%20MANSION,257722,1.308161316,103.8201894
GENTLE REFLECTIONS,GENTLE%20REFLECTIONS,309204,1.319140593,103.8386093
BELMONT ROAD,BELMONT%20ROAD,269853,1.313275025,103.7985444
ORCHARD SCOTTS,ORCHARD%20SCOTTS,229955,1.309660253,103.8384453
REBECCA ROAD,REBECCA%20ROAD,266710,1.320114881,103.8006125
EMERALD HILL CONSERVATION AREA,EMERALD%20HILL%20CONSERVATION%20AREA,229310,1.302253951,103.839316
VIZ AT HOLLAND,VIZ%20AT%20HOLLAND,276751,1.307860372,103.8016218
JALAN TUPAI,JALAN%20TUPAI,249160,1.301840202,103.8265115
BEVERLY HILL,BEVERLY%20HILL,249570,1.298504823,103.8255662
ONE OXLEY RISE,ONE%20OXLEY%20RISE,238714,1.29924812,103.8417089
MOUNT SINAI,MOUNT%20SINAI,276819,1.317643158,103.781008
GEYLANG HERITAGE,GEYLANG%20HERITAGE,398231,1.312777988,103.8876516
WOOLLERTON PARK,WOOLLERTON%20PARK,257512,1.318259087,103.8093987
SOMMERVILLE LOFT,SOMMERVILLE%20LOFT,358178,1.343669589,103.8697898
LANTANA AVENUE,LANTANA%20AVENUE,277910,1.328144848,103.7933626
THE MKZ,THE%20MKZ,228714,1.306522129,103.8465874
DELIGHT COURT,DELIGHT%20COURT,387982,1.315141475,103.8880428
CUSCADEN ROAD,CUSCADEN%20ROAD,249722,1.304663478,103.8264342
120 GRANGE,120%20GRANGE,249600,1.299979099,103.8255228
THE SUNNY SPRING,THE%20SUNNY%20SPRING,398076,1.312388575,103.8893508
RV EDGE,RV%20EDGE,248209,1.294883829,103.8280873
THE ANTARES,THE%20ANTARES,387731,1.325806683,103.88364
THE PROMONT,THE%20PROMONT,229790,1.307706427,103.8379661
SOMMERVILLE WALK,SOMMERVILLE%20WALK,357694,1.345921944,103.8708101
VISIONCREST,VISIONCREST,238713,1.298250867,103.843081
EAST SUSSEX LANE,EAST%20SUSSEX%20LANE,279810,1.311949322,103.7906155
BUCKLEY ROAD,BUCKLEY%20ROAD,309752,1.317015214,103.8398744
BO SENG AVENUE,BO%20SENG%20AVENUE,309808,1.326344893,103.8384486
GALLOP PARK,GALLOP%20PARK,259026,1.319055007,103.8120903
THE GLYNDEBOURNE,THE%20GLYNDEBOURNE,297722,1.322225334,103.8235978
SUNFLOWER LODGE,SUNFLOWER%20LODGE,398207,1.313598167,103.8879126
VANADIUM,VANADIUM,219406,1.312893183,103.847804
HERTFORD COLLECTION,HERTFORD%20COLLECTION,219408,1.31325732,103.8489534
SPRING GROVE,SPRING%20GROVE,249568,1.29752171,103.8273851
LORNIE WALK,LORNIE%20WALK,298660,1.339073933,103.8205061
BOON TECK APARTMENTS,BOON%20TECK%20APARTMENTS,329609,1.327186487,103.8506485
CLUNY PARK ROAD,CLUNY%20PARK%20ROAD,257496,1.321936082,103.8138709
THE SHELFORD,THE%20SHELFORD,288535,1.325588059,103.8116469
CENTRA SUITES,CENTRA%20SUITES,388242,1.314651668,103.8832881
VACANZA @ EAST,VACANZA%20%40%20EAST,417398,1.329516894,103.9148654
DOMUS,DOMUS,329564,1.325713038,103.8455089
LORONG 27 GEYLANG,LORONG%2027%20GEYLANG,388163,1.314715475,103.8835621
OEI TIONG HAM PARK,OEI%20TIONG%20HAM%20PARK,267037,1.314156997,103.7918396
SHAMROCK VILLAS,SHAMROCK%20VILLAS,267189,1.323043485,103.7967224
LOFT @ NATHAN,LOFT%20%40%20NATHAN,248327,1.294460986,103.8276209
LORONG 35 GEYLANG,LORONG%2035%20GEYLANG,387945,1.315672004,103.8883506
TAN SIM BOH ROAD,TAN%20SIM%20BOH%20ROAD,307719,1.325586784,103.8406109
JALAN SENTOSA,JALAN%20SENTOSA,418240,1.323425093,103.9175052
BELLA VISTA,BELLA%20VISTA,358227,1.344129549,103.8703269
CRYSTAL MANSIONS,CRYSTAL%20MANSIONS,399165,1.31115203,103.8766748
LORONG 16 GEYLANG,LORONG%2016%20GEYLANG,398863,1.311789803,103.8795781
DAISY AVENUE,DAISY%20AVENUE,359482,1.344881383,103.8675397
CITYVALE,CITYVALE,228153,1.302045845,103.848101
GRANGE INFINITE,GRANGE%20INFINITE,239700,1.299422811,103.8347768
EWE BOON REGENT,EWE%20BOON%20REGENT,259332,1.316490115,103.8304733
ALLAMANDA GROVE,ALLAMANDA%20GROVE,269978,1.323385936,103.7933903
BLOSSOMS @ WOODLEIGH,BLOSSOMS%20%40%20WOODLEIGH,357909,1.336026642,103.8687334
KIM KEAT GARDENS,KIM%20KEAT%20GARDENS,328847,1.323587478,103.8526471
ILLUMINAIRE ON DEVONSHIRE,ILLUMINAIRE%20ON%20DEVONSHIRE,239900,1.29906764,103.836832
NAMLY RISE,NAMLY%20RISE,267112,1.326185926,103.7940852
EURO-ASIA COURT,EURO-ASIA%20COURT,238431,1.294115625,103.8375047
URBAN HERITAGE,URBAN%20HERITAGE,329701,1.321844139,103.8533341
GRANDVIEW SUITES,GRANDVIEW%20SUITES,398664,1.312776046,103.8824556
SKT MANSIONS,SKT%20MANSIONS,388307,1.314696847,103.8826289
JALAN GIRANG,JALAN%20GIRANG,359203,1.348341686,103.867492
GREENWOOD AVENUE,GREENWOOD%20AVENUE,286886,1.337641526,103.8050138
PRINCESS OF WALES PARK,PRINCESS%20OF%20WALES%20PARK,266932,1.323145299,103.8076767
DARBY PARK,DARBY%20PARK,258353,1.310120152,103.8262508
LINCOLN SUITES,LINCOLN%20SUITES,308380,1.317108641,103.8427431
SECOND AVENUE,SECOND%20AVENUE,269748,1.32982544,103.79947
UP@ROBERTSON QUAY,UP%40ROBERTSON%20QUAY,238260,1.290780801,103.8374455
ST MICHAEL REGENCY,ST%20MICHAEL%20REGENCY,328008,1.327919554,103.8638463
VICTORY HEIGHTS,VICTORY%20HEIGHTS,328842,1.32441624,103.8526035
HYLL ON HOLLAND,HYLL%20ON%20HOLLAND,275749,1.310496368,103.8023922
FERRELL RESIDENCES,FERRELL%20RESIDENCES,259715,1.317699234,103.8323402
VIENTO,VIENTO,398362,1.312211045,103.8865205
KIM YAM ROAD,KIM%20YAM%20ROAD,239319,1.295516912,103.8389129
THE PIER AT ROBERTSON,THE%20PIER%20AT%20ROBERTSON,239013,1.291417798,103.8405531
283 STUDIO,283%20STUDIO,238324,1.295704105,103.8398118
SUNFLOWER VIEW,SUNFLOWER%20VIEW,398162,1.312884445,103.8883273
KENG CHIN ROAD,KENG%20CHIN%20ROAD,258705,1.318133498,103.8307483
THE SUITES AT CENTRAL,THE%20SUITES%20AT%20CENTRAL,239899,1.29849428,103.8366498
6 DERBYSHIRE,6%20DERBYSHIRE,309462,1.315681726,103.8458804
SUI GENERIS,SUI%20GENERIS,259920,1.316290681,103.8343668
STARLIGHT ROAD,STARLIGHT%20ROAD,217757,1.313940948,103.8533967
DAISY PARK,DAISY%20PARK,359508,1.34496826,103.8664121
LOFT @ RANGOON,LOFT%20%40%20RANGOON,218392,1.314959351,103.8535561
SHELFORD SUITES,SHELFORD%20SUITES,288383,1.326601354,103.8126549
KIM KEAT HOUSE,KIM%20KEAT%20HOUSE,328827,1.325377665,103.854016
SILVERSCAPE,SILVERSCAPE,398299,1.312569987,103.8872092
DLV.,DLV.,259469,1.31547211,103.8251036
ST REGIS RESIDENCES SINGAPORE,ST%20REGIS%20RESIDENCES%20SINGAPORE,247913,1.305570027,103.8266025
RITZ MANSIONS,RITZ%20MANSIONS,329776,1.324949881,103.8526046
PRESTIGE HEIGHTS,PRESTIGE%20HEIGHTS,329778,1.325329778,103.8524117
GUILIN MANSIONS,GUILIN%20MANSIONS,387906,1.315787774,103.8899595
SIMS POINT,SIMS%20POINT,388489,1.31312217,103.8794748
HOLLAND GROVE DRIVE,HOLLAND%20GROVE%20DRIVE,278874,1.313495207,103.7813557
DUET,DUET,258875,1.311325892,103.8042391
TANGLIN REGENCY,TANGLIN%20REGENCY,247967,1.292210424,103.8163053
VIIO @ BALESTIER,VIIO%20%40%20BALESTIER,329853,1.326976935,103.8459033
REZI 3TWO,REZI%203TWO,398308,1.312127531,103.8868143
JALAN SIANTAN,JALAN%20SIANTAN,268240,1.322226123,103.796847
CITYLIGHTS,CITYLIGHTS,208766,1.308275812,103.8631174
SCOTTS 28,SCOTTS%2028,228223,1.309808987,103.8349179
CHEN FANG MANSIONS,CHEN%20FANG%20MANSIONS,387986,1.315382218,103.8879365
PRINCESS OF WALES ROAD,PRINCESS%20OF%20WALES%20ROAD,266932,1.323145299,103.8076767
URBAN SUITES,URBAN%20SUITES,229161,1.304220707,103.8383895
SAUNDERS ROAD,SAUNDERS%20ROAD,228271,1.304158779,103.8390334
SRI MENANTI ESTATE,SRI%20MENANTI%20ESTATE,159191,1.294401625,103.8185056
BRIZAY PARK,BRIZAY%20PARK,279946,1.330925172,103.7858044
THE PEAK @ CAIRNHILL I,THE%20PEAK%20%40%20CAIRNHILL%20I,229784,1.308192652,103.8383745
SOPHIA ROAD,SOPHIA%20ROAD,228196,1.300838184,103.8488807
TAN TONG MENG TOWER,TAN%20TONG%20MENG%20TOWER,298128,1.327767199,103.8416145
JALAN RIA,JALAN%20RIA,359075,1.345872985,103.8662141
TREVOSE PARK,TREVOSE%20PARK,298071,1.324688443,103.8257442
CARMI MANSIONS,CARMI%20MANSIONS,387991,1.31572497,103.8880375
GILSTEAD TWO,GILSTEAD%20TWO,309061,1.31496035,103.8384594
FERNHILL ROAD,FERNHILL%20ROAD,259099,1.313704905,103.8245935
NIVEN ROAD,NIVEN%20ROAD,228421,1.303981919,103.8497832
EAST SHINE,EAST%20SHINE,417026,1.322775147,103.9098116
GARLICK VILLE,GARLICK%20VILLE,276444,1.326153486,103.7921082
SENG YONG VILLAS,SENG%20YONG%20VILLAS,419481,1.32400489,103.9183248
THE EDGE ON CAIRNHILL,THE%20EDGE%20ON%20CAIRNHILL,229717,1.308830876,103.8371302
DUCHESS MANOR,DUCHESS%20MANOR,269033,1.324439521,103.8076508
CITYSCAPE @FARRER PARK,CITYSCAPE%20%40FARRER%20PARK,219067,1.318021994,103.8515937
JOO AVENUE,JOO%20AVENUE,219327,1.315687089,103.8548373
GREENMEAD AVENUE,GREENMEAD%20AVENUE,289451,1.333466154,103.8071725
TORIEVIEW MANSIONS,TORIEVIEW%20MANSIONS,388066,1.314582066,103.8862803
HOLLAND PEAK,HOLLAND%20PEAK,278741,1.309094587,103.802173
SUITES @ TOPAZ,SUITES%20%40%20TOPAZ,327849,1.328625846,103.8651331
PARC SOPHIA,PARC%20SOPHIA,229979,1.301418093,103.8475703
VERTICUS,VERTICUS,329343,1.326356381,103.8506602
MONVILLE MANSIONS,MONVILLE%20MANSIONS,329857,1.327168745,103.8455186
GOLDHILL GARDENS,GOLDHILL%20GARDENS,308878,1.319665115,103.8317604
WESTERHOUT ROAD,WESTERHOUT%20ROAD,397644,1.310751938,103.8801825
MAKEPEACE ROAD,MAKEPEACE%20ROAD,228629,1.311859982,103.8426534
AIRSTREAM,AIRSTREAM,327994,1.327326614,103.8640356
BELMONDO VIEW,BELMONDO%20VIEW,328369,1.323262809,103.8512156
PAVILION SQUARE,PAVILION%20SQUARE,389366,1.312941668,103.8797821
YGK GARDEN,YGK%20GARDEN,269854,1.312787417,103.7993627
D'LEEDON,D%27LEEDON,267951,1.314893209,103.8023151
THE NAVIAN,THE%20NAVIAN,419530,1.327808878,103.9063996
SUNFLOWER GRANDEUR,SUNFLOWER%20GRANDEUR,387878,1.316080757,103.8904847
RICH MANSIONS,RICH%20MANSIONS,259709,1.317344006,103.8335576
ESPADA,ESPADA,238126,1.297341971,103.8367416
VILLA DELLE ROSE,VILLA%20DELLE%20ROSE,257759,1.311367844,103.807323
ALBA,ALBA,229743,1.307415352,103.8397173
26 NEWTON,26%20NEWTON,307957,1.315692816,103.8416155
PETAIN COURT,PETAIN%20COURT,208088,1.311911451,103.8588892
ELM AVENUE,ELM%20AVENUE,279780,1.332395025,103.7909771
MARTIN MODERN,MARTIN%20MODERN,237992,1.293496664,103.8381049
CARLYX GREEN,CARLYX%20GREEN,219606,1.313180918,103.8478058
CHERRY AVENUE,CHERRY%20AVENUE,279864,1.332411244,103.7920615
SOPHIA 98,SOPHIA%2098,228165,1.302344685,103.847116
DRAYCOTT EIGHT,DRAYCOTT%20EIGHT,259405,1.311388413,103.832182
VICTORY POINT,VICTORY%20POINT,329951,1.322431209,103.8524889
GOODWOOD GRAND,GOODWOOD%20GRAND,259828,1.315166343,103.8332914
WILSHIRE RESIDENCES,WILSHIRE%20RESIDENCES,268832,1.313061613,103.8046476
NIN RESIDENCE,NIN%20RESIDENCE,348271,1.332996524,103.8699832
JALAN RIMAU,JALAN%20RIMAU,418721,1.328611114,103.9084665
HOLLAND GROVE TERRACE,HOLLAND%20GROVE%20TERRACE,278781,1.315036758,103.7808014
UE SQUARE,UE%20SQUARE,239917,1.292164661,103.8426015
DUNSFOLD 18,DUNSFOLD%2018,359396,1.348125738,103.8604218
SANTA TERRACES,SANTA%20TERRACES,417165,1.324679655,103.9083182
CASSIA DRIVE,CASSIA%20DRIVE,289728,1.336995894,103.8036793
UNIT 8,UNIT%208,258869,1.309716348,103.8058632
SENNETT RESIDENCE,SENNETT%20RESIDENCE,348234,1.331527029,103.8695137
SETIA RESIDENCES,SETIA%20RESIDENCES,309304,1.315906663,103.8399478
TIVOLI LODGE,TIVOLI%20LODGE,388031,1.315353909,103.8870883
JALAN RAHMAT,JALAN%20RAHMAT,418758,1.321654613,103.9080577
THE POIZ RESIDENCES,THE%20POIZ%20RESIDENCES,358474,1.33154468,103.8669965
KEMBANGAN SUITES,KEMBANGAN%20SUITES,418941,1.320152571,103.9127271
KENTISH GREEN,KENTISH%20GREEN,218815,1.315599978,103.8517873
GAMBIER COURT,GAMBIER%20COURT,239381,1.292690593,103.8396914
WATERBANK AT DAKOTA,WATERBANK%20AT%20DAKOTA,399949,1.306828432,103.8889728
AMANINDA,AMANINDA,307687,1.324787294,103.8408644
CENTRO MANSIONS,CENTRO%20MANSIONS,398280,1.313096334,103.8867547
PARC MACKENZIE,PARC%20MACKENZIE,228687,1.30625542,103.8478765
D'WEAVE,D%27WEAVE,387866,1.315541079,103.8904583
GLOBAL VILLE,GLOBAL%20VILLE,329192,1.327516688,103.8426038
JALAN SUKACHITA,JALAN%20SUKACHITA,358888,1.348030128,103.8668157
GILSTEAD 38,GILSTEAD%2038,309082,1.31814187,103.8391511
THE ORANGE GROVE,THE%20ORANGE%20GROVE,258364,1.313725891,103.8263796
THE VINES,THE%20VINES,416736,1.319388654,103.9080107
ST MICHAEL'S CONDOMINIUM,ST%20MICHAEL%27S%20CONDOMINIUM,328003,1.326144603,103.8623403
REZI 26,REZI%2026,398505,1.312622189,103.8850874
CORONA VILLE,CORONA%20VILLE,268535,1.322527841,103.7950446
REZI 24,REZI%2024,398636,1.311564225,103.883576
ROBIN SUITES,ROBIN%20SUITES,258203,1.317691725,103.8287695
MINBU COURT,MINBU%20COURT,308184,1.325489418,103.8483754
CHANCERY HILL WALK,CHANCERY%20HILL%20WALK,309610,1.323812474,103.8394585
VANDA AVENUE,VANDA%20AVENUE,287943,1.334289989,103.8014465
FERNHILL COURT,FERNHILL%20COURT,259117,1.313797594,103.823387
LE REGAL,LE%20REGAL,389365,1.312502687,103.8803681
RESIDENCES AT 338A,RESIDENCES%20AT%20338A,238381,1.296356172,103.8379911
NAMLY PLACE,NAMLY%20PLACE,267182,1.323337382,103.7972934
JALAN MULIA,JALAN%20MULIA,368653,1.332821309,103.880656
GUILLEMARD CRESCENT,GUILLEMARD%20CRESCENT,390000,1.309046522,103.8800076
STURDEE RESIDENCES,STURDEE%20RESIDENCES,209955,1.312916953,103.8590471
THE LINCOLN RESIDENCES,THE%20LINCOLN%20RESIDENCES,307762,1.315374759,103.8423999
JERVOIS MEADOWS,JERVOIS%20MEADOWS,249063,1.294889409,103.8166558
GOODVIEW APARTMENTS,GOODVIEW%20APARTMENTS,399077,1.311638866,103.8768381
MONTEBLEU,MONTEBLEU,308162,1.323782735,103.8501021
THE PARK VALE,THE%20PARK%20VALE,288564,1.329995137,103.8116232
REZI 35,REZI%2035,387949,1.315721209,103.8888371
DEVONSHIRE ROAD,DEVONSHIRE%20ROAD,239847,1.298062379,103.8380191
JALAN NOVENA,JALAN%20NOVENA,308651,1.323765682,103.8433954
SALLIM LODGE,SALLIM%20LODGE,387635,1.325749311,103.8826219
ROCHELLE AT NEWTON,ROCHELLE%20AT%20NEWTON,308414,1.314044257,103.8419229
LION TOWERS,LION%20TOWERS,309330,1.316573432,103.8452935
TEO KIM ENG ROAD,TEO%20KIM%20ENG%20ROAD,416391,1.32850341,103.9082484
ROCCA BALESTIER,ROCCA%20BALESTIER,329928,1.321295632,103.8525261
CAIRNHILL CONSERVATION AREA,CAIRNHILL%20CONSERVATION%20AREA,229654,1.303266489,103.8379984
1919,1919,228175,1.302776124,103.846571
MERRYN ROAD,MERRYN%20ROAD,298527,1.327810941,103.8242138
JALAN ARNAP,JALAN%20ARNAP,249344,1.300545237,103.8275551
HILLCREST ARCADIA,HILLCREST%20ARCADIA,289854,1.335471541,103.8089308
RAFFLES PARK,RAFFLES%20PARK,288537,1.336010543,103.8025442
MACKERROW ROAD,MACKERROW%20ROAD,358626,1.345154775,103.8637883
SWETTENHAM CLOSE,SWETTENHAM%20CLOSE,248134,1.300293073,103.8073357
DEVONSHIRE 12,DEVONSHIRE%2012,239847,1.298062379,103.8380191
JALAN ANGGEREK,JALAN%20ANGGEREK,369468,1.329787374,103.8823624
THE ARIZON,THE%20ARIZON,389493,1.313718623,103.8865889
BELLE VUE RESIDENCES,BELLE%20VUE%20RESIDENCES,238599,1.296705265,103.8419026
JEWEL OF BALMORAL,JEWEL%20OF%20BALMORAL,259865,1.31588532,103.8274861
CASA CONTENDERE,CASA%20CONTENDERE,309083,1.318357195,103.8383752
MORO MANSIONS,MORO%20MANSIONS,387901,1.315288105,103.8894301
LORONG 18 GEYLANG,LORONG%2018%20GEYLANG,398801,1.31200387,103.8804362
VIDA,VIDA,425769,1.313538099,103.9149444
CAMBRIDGE VILLAGE,CAMBRIDGE%20VILLAGE,219679,1.313194528,103.847446
PEPPERMINT GROVE,PEPPERMINT%20GROVE,307971,1.318216773,103.8414937
YONG AN PARK,YONG%20AN%20PARK,238365,1.295562971,103.8342355
LE REVE,LE%20REVE,417786,1.31893681,103.9062789
VALLEY PARK,VALLEY%20PARK,248368,1.293173476,103.8285776
NESS,NESS,398298,1.312697947,103.8867768
THE TATE RESIDENCES,THE%20TATE%20RESIDENCES,229546,1.308460173,103.8306423
MATTAR ROAD,MATTAR%20ROAD,387713,1.32568439,103.8815005
BIN TONG PARK,BIN%20TONG%20PARK,269813,1.320418333,103.7986032
MENG SUAN ROAD,MENG%20SUAN%20ROAD,779217,1.402970626,103.8134559
GUILLEMARD ROAD,GUILLEMARD%20ROAD,399739,1.311085947,103.8836338
GENTLE VILLAS,GENTLE%20VILLAS,309235,1.320519752,103.8415876
SUMMER GREEN,SUMMER%20GREEN,329585,1.326970701,103.8497165
THE ALCOVE,THE%20ALCOVE,388199,1.314006553,103.8840153
RITZ @ FARRER,RITZ%20%40%20FARRER,218593,1.309936708,103.8523955
LEVENUE,LEVENUE,417642,1.328642698,103.9137441
ONE LYNWOOD,ONE%20LYNWOOD,358690,1.344184051,103.8629651
CENTRAL IMPERIAL,CENTRAL%20IMPERIAL,398915,1.311942668,103.879214
KINGSMEAD ROAD,KINGSMEAD%20ROAD,267983,1.320044495,103.8056354
THE COSMOPOLITAN,THE%20COSMOPOLITAN,239471,1.295781978,103.8324162
ORCHARD VIEW,ORCHARD%20VIEW,239977,1.302517161,103.8294693
REGENCY PARK,REGENCY%20PARK,248726,1.296763827,103.8254111
336 RIVER VALLEY,336%20RIVER%20VALLEY,238366,1.296121477,103.8385229
LORONG 25 GEYLANG,LORONG%2025%20GEYLANG,388302,1.314440001,103.882324
CASA MEYA,CASA%20MEYA,358464,1.330890087,103.8668967
DUNEARN COURT,DUNEARN%20COURT,309426,1.316177418,103.837815
ONE ST MICHAEL'S,ONE%20ST%20MICHAEL%27S,328006,1.324703879,103.864609
WHAMPOA DRIVE,WHAMPOA%20DRIVE,320092,1.323186968,103.8538854
COSMO,COSMO,399914,1.30957644,103.8810396
ASTORIA PARK,ASTORIA%20PARK,416883,1.321143279,103.9118083
ZENITH,ZENITH,247785,1.2926368,103.8305681
SUITES 123,SUITES%20123,218401,1.315149945,103.8534782
AVON PARK,AVON%20PARK,357741,1.339245606,103.8697701
LORONG MYDIN,LORONG%20MYDIN,416833,1.321428204,103.9115118
D' CASITA,D%27%20CASITA,417104,1.321896028,103.9093527
SHAN GATE APARTMENTS,SHAN%20GATE%20APARTMENTS,328103,1.325912759,103.8468646
BUCKLEY 18,BUCKLEY%2018,309776,1.318295621,103.8410633
LEICESTER LODGE,LEICESTER%20LODGE,358843,1.329985648,103.8668754
ASHLEY GREEN,ASHLEY%20GREEN,279927,1.321214978,103.7840757
MONTCLAIR @ WHITLEY,MONTCLAIR%20%40%20WHITLEY,297814,1.325933577,103.8370196
HORNE ROAD,HORNE%20ROAD,209066,1.309248326,103.8621291
THE WHARF RESIDENCE,THE%20WHARF%20RESIDENCE,238026,1.293204799,103.8402017
LORONG 28 GEYLANG,LORONG%2028%20GEYLANG,398428,1.312804531,103.885412
WAN THO AVENUE,WAN%20THO%20AVENUE,347554,1.333162553,103.8709488
1953,1953,217701,1.316477524,103.8577508
FIFTY-TWO STEVENS,FIFTY-TWO%20STEVENS,257848,1.315024326,103.8265703
WING FONG BUILDING,WING%20FONG%20BUILDING,399138,1.309017907,103.8772682
NOVENA REGENCY,NOVENA%20REGENCY,307690,1.321410375,103.8413992
SKYLINE @ ORCHARD BOULEVARD,SKYLINE%20%40%20ORCHARD%20BOULEVARD,239975,1.303154281,103.8295775
BOUGAINVILLA APARTMENTS,BOUGAINVILLA%20APARTMENTS,388493,1.31349659,103.8797663
THE IVERIA,THE%20IVERIA,239320,1.295285645,103.8385674
LENGKOK ANGSA,LENGKOK%20ANGSA,239268,1.3013006,103.8302132
MOUNT ROSIE ROAD,MOUNT%20ROSIE%20ROAD,308037,1.321366535,103.8365878
DUCHESS CREST,DUCHESS%20CREST,269196,1.324498279,103.8038327
RIVERSIDE 48,RIVERSIDE%2048,238237,1.29092554,103.8398048
TWO8ONE STUDIO,TWO8ONE%20STUDIO,238322,1.295717053,103.839861
CORONATION GROVE,CORONATION%20GROVE,269526,1.322807075,103.8022073
BELMOND GREEN,BELMOND%20GREEN,259819,1.316027477,103.8315898
HIGH POINT,HIGH%20POINT,228519,1.308454124,103.8354562
WATTEN PARK,WATTEN%20PARK,287419,1.327610337,103.8071754
LORONG 6 GEYLANG,LORONG%206%20GEYLANG,399192,1.310441985,103.8767148
GREENLEAF DRIVE,GREENLEAF%20DRIVE,279545,1.322559375,103.7854363
GRANGE HEIGHTS,GRANGE%20HEIGHTS,238143,1.297871084,103.8350563
DALVEY COURT,DALVEY%20COURT,259548,1.321025699,103.8221728
GUILIN COURT,GUILIN%20COURT,398485,1.312258547,103.8846625
D'LOTUS,D%27LOTUS,328784,1.326118368,103.853496
THE TESSARINA,THE%20TESSARINA,276310,1.332177418,103.7892287
TRURO ROAD,TRURO%20ROAD,217574,1.313960691,103.8499432
PARC ASTON,PARC%20ASTON,358831,1.330126732,103.867598
SHAW PLAZA - TWIN HEIGHTS,SHAW%20PLAZA%20-%20TWIN%20HEIGHTS,329780,1.324973385,103.8514268
SUITES @ NEWTON,SUITES%20%40%20NEWTON,307740,1.316400356,103.8416718
28 RC SUITES,28%20RC%20SUITES,218746,1.309981792,103.852952
MOUNT SINAI RESIDENCES,MOUNT%20SINAI%20RESIDENCES,277061,1.31628584,103.78571
THE CLAYMORE,THE%20CLAYMORE,229544,1.309128296,103.8316084
THE LEGACY,THE%20LEGACY,259750,1.321045083,103.8226397
111 EMERALD HILL,111%20EMERALD%20HILL,229391,1.305059213,103.8392358
MING TECK PARK,MING%20TECK%20PARK,277399,1.319452824,103.7884349
8 BASSEIN,8%20BASSEIN,309838,1.32353748,103.8481082
GALLERY FIFTEEN,GALLERY%20FIFTEEN,329370,1.327561401,103.8437055
TUDOR TEN,TUDOR%20TEN,297973,1.32646224,103.8192156
ROBERTSON BLUE,ROBERTSON%20BLUE,238245,1.290263075,103.8371589
CASA SOPHIA,CASA%20SOPHIA,228170,1.302509442,103.8463192
THE URBANITE,THE%20URBANITE,219384,1.313510262,103.8483721
JALAN MELATI,JALAN%20MELATI,368891,1.329218209,103.883156
JALAN GRISEK,JALAN%20GRISEK,419465,1.324209241,103.9187615
MOONSTONE RESIDENCES,MOONSTONE%20RESIDENCES,328465,1.327098636,103.8660657
HENRY PARK,HENRY%20PARK,279027,1.313696647,103.7848287
LORONG TAHAR,LORONG%20TAHAR,387750,1.312371997,103.8754757
KOPAR AT NEWTON,KOPAR%20AT%20NEWTON,228607,1.312731109,103.8408056
JALAN LATEH,JALAN%20LATEH,359132,1.345222017,103.86916
MANHATTAN MANSIONS,MANHATTAN%20MANSIONS,249580,1.29978083,103.8284892
RANGOON ROAD,RANGOON%20ROAD,218460,1.317823909,103.8522251
THREE THREE ROBIN,THREE%20THREE%20ROBIN,258208,1.316805803,103.8287992
DORMER PARK,DORMER%20PARK,249047,1.294295535,103.8214312
CORONATION ARCADE,CORONATION%20ARCADE,269406,1.323301144,103.8105278
SERANGOON ROAD,SERANGOON%20ROAD,218152,1.314475484,103.8571833
2 RVG,2%20RVG,238405,1.29644996,103.8344395
SUITES@BRADDELL,SUITES%40BRADDELL,359965,1.343547961,103.8686584
BLOSSOM VIEW,BLOSSOM%20VIEW,398498,1.311647735,103.8850599
KENTISH COURT,KENTISH%20COURT,218816,1.315145345,103.8523658
SLOANE RESIDENCES,SLOANE%20RESIDENCES,259803,1.315688872,103.8323179
DAISY ROAD,DAISY%20ROAD,359455,1.343848762,103.8684281
THE ARMADALE,THE%20ARMADALE,309104,1.318567653,103.8402688
THREE BUCKLEY,THREE%20BUCKLEY,309752,1.317015214,103.8398744
WATTEN RESIDENCES,WATTEN%20RESIDENCES,287332,1.328703977,103.8086254
ALLSWORTH PARK,ALLSWORTH%20PARK,278640,1.319955911,103.7805752
GAIA,GAIA,329371,1.327845109,103.8437094
D' PALMA,D%27%20PALMA,416817,1.31995634,103.911743
WILKIE STUDIO,WILKIE%20STUDIO,228096,1.303438443,103.8476115
JERVOIS VIEW,JERVOIS%20VIEW,249004,1.293893395,103.8240892
THE WATER EDGE,THE%20WATER%20EDGE,398106,1.313721052,103.8887596
PARC STEVENS,PARC%20STEVENS,257922,1.316911971,103.8267335
70@TRURO,70%40TRURO,217618,1.314914092,103.8490899
JALAN LAPANG,JALAN%20LAPANG,418987,1.322765953,103.9174644
KALLANG RIVERSIDE,KALLANG%20RIVERSIDE,338986,1.307104742,103.8670878
ASCENT @ 456,ASCENT%20%40%20456,329832,1.326573608,103.8483599
JALAN HAROM SETANGKAI,JALAN%20HAROM%20SETANGKAI,258824,1.319683981,103.8122177
BIRCH ROAD,BIRCH%20ROAD,219893,1.311139138,103.8536289
BALMORAL PARK,BALMORAL%20PARK,259847,1.314851307,103.827822
PARK COLONIAL,PARK%20COLONIAL,357688,1.338538839,103.87008
LORONG 4 GEYLANG,LORONG%204%20GEYLANG,399284,1.30995234,103.8762413
AVENUE VILLAS,AVENUE%20VILLAS,276497,1.327591695,103.7946656
BALESTIER PLAZA,BALESTIER%20PLAZA,329802,1.325744091,103.8503826
PATERSON LINC,PATERSON%20LINC,238509,1.303194524,103.8299849
CORNWALL GARDENS,CORNWALL%20GARDENS,269676,1.317071748,103.8012488
GRAMERCY PARK,GRAMERCY%20PARK,249569,1.298780892,103.8266775
ONE LEICESTER,ONE%20LEICESTER,358828,1.329430696,103.8673573
JALAN KEMBANGAN,JALAN%20KEMBANGAN,419129,1.32345135,103.9134316
VAUGHAN ROAD,VAUGHAN%20ROAD,358096,1.347679182,103.8707755
DORSET MANSIONS,DORSET%20MANSIONS,219494,1.313500171,103.8499771
HAPPY AVENUE NORTH,HAPPY%20AVENUE%20NORTH,369776,1.331254141,103.8810234
NAMLY AVENUE,NAMLY%20AVENUE,267674,1.325131527,103.7950022
PUAY HEE AVENUE,PUAY%20HEE%20AVENUE,348185,1.331855465,103.8711313
ST THOMAS SUITES,ST%20THOMAS%20SUITES,238141,1.298410372,103.8358983
HOLLAND HILL PARK,HOLLAND%20HILL%20PARK,278732,1.309848086,103.8022021
ONE TREE HILL,ONE%20TREE%20HILL,248677,1.301128226,103.8256761
BEAUFORT ON NASSIM,BEAUFORT%20ON%20NASSIM,258380,1.308569355,103.8247385
THE VERVE,THE%20VERVE,329138,1.327721882,103.8481373
JAYA TOWER,JAYA%20TOWER,259738,1.320107017,103.8239781
JALAN SENYUM,JALAN%20SENYUM,418204,1.323560603,103.9140433
COTSWOLD CLOSE,COTSWOLD%20CLOSE,359659,1.346296435,103.8620779
DENG FU VILLE,DENG%20FU%20VILLE,417777,1.31907103,103.9067277
QUEEN ASTRID PARK,QUEEN%20ASTRID%20PARK,266837,1.317878694,103.7918497
CUSCADEN RESERVE,CUSCADEN%20RESERVE,249732,1.303610112,103.8251672
BALMY COURT,BALMY%20COURT,388105,1.314158351,103.8849496
CENTURION RESIDENCES,CENTURION%20RESIDENCES,348195,1.329511026,103.8700633
FRANKEL ESTATE,FRANKEL%20ESTATE,458045,1.316732703,103.915841
SUFFOLK PREMIER,SUFFOLK%20PREMIER,307781,1.314243998,103.8446867
E MAISON,E%20MAISON,359967,1.344106029,103.8687014
FAIRLODGE,FAIRLODGE,278553,1.312157359,103.8016222
HERTFORD ROAD,HERTFORD%20ROAD,219408,1.31325732,103.8489534
OLEANDER TOWERS,OLEANDER%20TOWERS,319771,1.333350047,103.8441029
JUNIPER AT ARDMORE,JUNIPER%20AT%20ARDMORE,259953,1.308759844,103.8296434
THE LEGEND,THE%20LEGEND,259725,1.318281079,103.8293825
THE TOMLINSON,THE%20TOMLINSON,249726,1.304415667,103.8260799
BLISS VILLE,BLISS%20VILLE,417030,1.323747156,103.9091351
SCENIC HEIGHTS,SCENIC%20HEIGHTS,329929,1.321625885,103.8521701
MEDGE,MEDGE,308186,1.323374323,103.8503808
PINEWOOD GARDENS,PINEWOOD%20GARDENS,259854,1.315467982,103.8300818
MEDALLION,MEDALLION,359929,1.343913183,103.8621549
THE DIAMOND,THE%20DIAMOND,388761,1.312984805,103.87619
DUCHESS ROYALE,DUCHESS%20ROYALE,269105,1.324203099,103.8061775
THE LINCOLN MODERN,THE%20LINCOLN%20MODERN,308353,1.315323126,103.8430559
ONE TREE HILL COLLECTION,ONE%20TREE%20HILL%20COLLECTION,248677,1.301128226,103.8256761
EUNOS GREEN,EUNOS%20GREEN,416558,1.318692888,103.9057495
KUM HING COURT,KUM%20HING%20COURT,247856,1.302250263,103.8262964
GENTLE ROAD,GENTLE%20ROAD,309159,1.319281346,103.8387129
EXCELLENCE MANSIONS,EXCELLENCE%20MANSIONS,388159,1.314339857,103.8835706
SOPHIA LODGE,SOPHIA%20LODGE,228152,1.301672686,103.8480362
EVELYN MANSIONS,EVELYN%20MANSIONS,309309,1.31649465,103.8391039
JERVOIS HILL,JERVOIS%20HILL,247718,1.296198198,103.8189659
BISHOPSGATE,BISHOPSGATE,247676,1.29843407,103.8245188
THE ENCLAVE . HOLLAND,THE%20ENCLAVE%20.%20HOLLAND,278569,1.312135221,103.799011
KIM KEAT CLOSE,KIM%20KEAT%20CLOSE,328915,1.323684094,103.8534309
CENTRA HEIGHTS,CENTRA%20HEIGHTS,387607,1.316293978,103.8865742
SEVEN OAKS,SEVEN%20OAKS,279679,1.330027303,103.7898698
TREASURES@G6,TREASURES%40G6,399187,1.310618129,103.876728
WATTEN TERRACE,WATTEN%20TERRACE,287255,1.328149237,103.8079975
JALAN LIM TAI SEE,JALAN%20LIM%20TAI%20SEE,268362,1.321900538,103.7939469
UPPER ALJUNIED ROAD,UPPER%20ALJUNIED%20ROAD,367866,1.3329458,103.8788861
MACKENZIE REGENCY,MACKENZIE%20REGENCY,228680,1.304657223,103.8494804
THE LIGHT @ CAIRNHILL,THE%20LIGHT%20%40%20CAIRNHILL,229768,1.306448329,103.8384131
EVELYN ROAD,EVELYN%20ROAD,309307,1.316759039,103.8396621
THE OXLEY,THE%20OXLEY,238699,1.297417086,103.8432012
WAN THO LODGE,WAN%20THO%20LODGE,347554,1.333162553,103.8709488
JALAN JELITA,JALAN%20JELITA,278359,1.316100778,103.786561
EURO-ASIA PARK,EURO-ASIA%20PARK,357922,1.336695494,103.8675995
SERENITY TERRACE,SERENITY%20TERRACE,417061,1.319800335,103.9095976
ELIZABETH TOWER,ELIZABETH%20TOWER,228512,1.30626331,103.836261
ONE HOLLAND VILLAGE RESIDENCES,ONE%20HOLLAND%20VILLAGE%20RESIDENCES,275754,1.312362172,103.7933012
YONG SENG ESTATE,YONG%20SENG%20ESTATE,418896,1.326212965,103.9173834
CLUNY PARK RESIDENCE,CLUNY%20PARK%20RESIDENCE,257496,1.321936082,103.8138709
THE ORCHARD RESIDENCES,THE%20ORCHARD%20RESIDENCES,237973,1.303836916,103.8317078
GREENVIEW CRESCENT,GREENVIEW%20CRESCENT,289316,1.333139737,103.8067449
VILLAS @ GILSTEAD,VILLAS%20%40%20GILSTEAD,309117,1.31866919,103.8391136
SPANISH VILLAGE,SPANISH%20VILLAGE,268849,1.315163519,103.8056774
GRANDLINK SQUARE,GRANDLINK%20SQUARE,399849,1.314191298,103.8915005
ONE JERVOIS,ONE%20JERVOIS,249116,1.292789826,103.8246416
TOP TEN,TOP%20TEN,229414,1.304844227,103.8397053
ONE TREE HILL RESIDENCE,ONE%20TREE%20HILL%20RESIDENCE,248669,1.300754819,103.8246572
CHELSEA GROVE,CHELSEA%20GROVE,329773,1.324172478,103.8512086
NAMLY HILL,NAMLY%20HILL,267276,1.325067513,103.7987233
THE VENUE RESIDENCES,THE%20VENUE%20RESIDENCES,347848,1.328525106,103.8693233
D' ALMIRA,D%27%20ALMIRA,358265,1.344684579,103.8679056
ARENA RESIDENCES,ARENA%20RESIDENCES,399915,1.309676858,103.8806428
NASSIM MANSION,NASSIM%20MANSION,258474,1.310070964,103.8191993
KELLOCK LODGE,KELLOCK%20LODGE,248902,1.294980918,103.8299631
SYLVAN LODGE,SYLVAN%20LODGE,278575,1.312634487,103.7980646
RV RESIDENCES,RV%20RESIDENCES,248346,1.29434105,103.8284403
BALMORAL PLAZA,BALMORAL%20PLAZA,259708,1.316434957,103.8354929
LOFT 33,LOFT%2033,398293,1.312784222,103.8872009
HAUS ON HANDY,HAUS%20ON%20HANDY,228482,1.300623002,103.8467666
PRIMEDGE,PRIMEDGE,398236,1.312531299,103.8881399
DUKE'S ROAD,DUKE%27S%20ROAD,268915,1.321780186,103.8115084
THE BOUTIQ,THE%20BOUTIQ,239573,1.29660443,103.8388425
CHANCERY COURT,CHANCERY%20COURT,309433,1.317299738,103.8361096
BRISTOL ROAD,BRISTOL%20ROAD,219855,1.313676341,103.8495093
KHEAM HOCK ROAD,KHEAM%20HOCK%20ROAD,298808,1.328659234,103.820422
JALAN SELAMAT,JALAN%20SELAMAT,418562,1.323976735,103.9158659
D'GROVE VILLAS,D%27GROVE%20VILLAS,258343,1.309133475,103.8277261
RESIDENCES @ KILLINEY,RESIDENCES%20%40%20KILLINEY,239566,1.296718641,103.8381733
HOLLAND GREEN,HOLLAND%20GREEN,276155,1.326620167,103.7839206
ASTOR,ASTOR,597592,1.318459094,103.7766377
VANDA CRESCENT,VANDA%20CRESCENT,287919,1.33429249,103.7996735
PLATINUM EDGE,PLATINUM%20EDGE,358847,1.330493747,103.8668479
ONE DUCHESS,ONE%20DUCHESS,268977,1.324833493,103.8083821
FOURTH AVENUE RESIDENCES,FOURTH%20AVENUE%20RESIDENCES,268679,1.329314593,103.7968513
L'VIV,L%27VIV,307955,1.315448385,103.8403548
LANGSTON VILLE,LANGSTON%20VILLE,239328,1.294926037,103.8389472
VANDA DRIVE,VANDA%20DRIVE,287869,1.333580778,103.8006156
FORTE SUITES,FORTE%20SUITES,219062,1.317827996,103.8519705
LUSH ON HOLLAND HILL,LUSH%20ON%20HOLLAND%20HILL,278737,1.308877689,103.8004688
VA RESIDENCES,VA%20RESIDENCES,329583,1.326726664,103.8496801
JALAN BESAR PLAZA,JALAN%20BESAR%20PLAZA,208511,1.308656852,103.8580644
GREENWOOD MEWS,GREENWOOD%20MEWS,286623,1.336935475,103.8054523
BOULEVARD VUE,BOULEVARD%20VUE,249697,1.303082713,103.8290269
PATERSON SUITES,PATERSON%20SUITES,238551,1.30109788,103.8305632
SHELFORD REGENCY,SHELFORD%20REGENCY,288455,1.326597305,103.8113329
STEVENS DRIVE,STEVENS%20DRIVE,257895,1.317223896,103.8266052
THE BOTANIC ON LLOYD,THE%20BOTANIC%20ON%20LLOYD,239126,1.296946335,103.8392507
THREE BALMORAL,THREE%20BALMORAL,259785,1.313924473,103.8304377
GRANGE ROAD,GRANGE%20ROAD,249572,1.299822197,103.8246779
MOULMEIN ROAD,MOULMEIN%20ROAD,308090,1.318459441,103.8474821
VIVA,VIVA,307465,1.315714279,103.8438541
EMERALD HILL ROAD,EMERALD%20HILL%20ROAD,229391,1.305059213,103.8392358
TWENTYONE ANGULLIA PARK,TWENTYONE%20ANGULLIA%20PARK,239974,1.303766556,103.8300335
ASPEN LINQ,ASPEN%20LINQ,239669,1.29534158,103.8398444
PARKSUITES,PARKSUITES,278805,1.315853122,103.782872
LATITUDE,LATITUDE,249212,1.29636918,103.8284263
BALMORAL CREST,BALMORAL%20CREST,259882,1.31585629,103.83401
MULBERRY AVENUE,MULBERRY%20AVENUE,348376,1.33075321,103.8754756
KIARA 10,KIARA%2010,417138,1.323150876,103.9089384
FERNHILL PLACE,FERNHILL%20PLACE,259066,1.314618056,103.825307
CORONATION ROAD WEST,CORONATION%20ROAD%20WEST,269250,1.318722265,103.793146
SKYLINE 360 @ SAINT THOMAS WALK,SKYLINE%20360%20%40%20SAINT%20THOMAS%20WALK,238142,1.296741859,103.8368837
CAMWOOD PARK,CAMWOOD%20PARK,258975,1.314597144,103.8111026
THE LENOX,THE%20LENOX,419845,1.318531196,103.9112983
TOPAZ MANSIONS,TOPAZ%20MANSIONS,327848,1.328270398,103.8660822
JALAN NAGA SARI,JALAN%20NAGA%20SARI,288862,1.330700425,103.8006049
STRATA,STRATA,309329,1.317409763,103.8449138
CORONATION VILLAGE,CORONATION%20VILLAGE,269497,1.323015777,103.8042153
GREENLEAF PLACE,GREENLEAF%20PLACE,279427,1.32492934,103.786405
CLIFTEN,CLIFTEN,259342,1.317712059,103.8291549
RHAPSODY ON MOUNT ELIZABETH,RHAPSODY%20ON%20MOUNT%20ELIZABETH,228513,1.306692173,103.8361834
WHITLEY VILLAS,WHITLEY%20VILLAS,297809,1.32680452,103.8375602
SUITES AT ORCHARD,SUITES%20AT%20ORCHARD,229239,1.300420062,103.8459576
MILL CREEK,MILL%20CREEK,417052,1.319553272,103.9099376
THE CITRINE,THE%20CITRINE,329415,1.327335168,103.8433239
SWISS VALLEY,SWISS%20VALLEY,288124,1.340294519,103.7909177
SUITES 28,SUITES%2028,398361,1.312684592,103.8859411
ORANGE GROVE RESIDENCES,ORANGE%20GROVE%20RESIDENCES,258362,1.313380134,103.8251366
RIVERBAY,RIVERBAY,328704,1.327987321,103.8625405
SHELFORD 23,SHELFORD%2023,288413,1.327835655,103.8122345
NASSIM PARK RESIDENCES,NASSIM%20PARK%20RESIDENCES,258462,1.307888439,103.8229907
SUNFLOWER RESIDENCE,SUNFLOWER%20RESIDENCE,398307,1.312438253,103.8873418
ADAM PARK CONDOMINIUM,ADAM%20PARK%20CONDOMINIUM,289903,1.327948865,103.8128339
LUMA,LUMA,238403,1.296799895,103.8345973
CORONATION SHOPPING PLAZA,CORONATION%20SHOPPING%20PLAZA,269707,1.3238337,103.810002
ROCHALIE DRIVE,ROCHALIE%20DRIVE,248237,1.302539296,103.8218022
CANBERLIN APARTMENTS,CANBERLIN%20APARTMENTS,398887,1.310684449,103.8798347
BEATTY ROAD,BEATTY%20ROAD,209952,1.314028926,103.8595022
SHREWSBURY ROAD,SHREWSBURY%20ROAD,307814,1.318423259,103.8472171
THE MIDAS,THE%20MIDAS,398359,1.312873273,103.8861145
THE MORNINGSIDE,THE%20MORNINGSIDE,239639,1.295386392,103.8358491
THE ASTON,THE%20ASTON,248973,1.295936458,103.8298498
SOMMERVILLE ROAD,SOMMERVILLE%20ROAD,358260,1.345301085,103.8680942
CARLYX RESIDENCE,CARLYX%20RESIDENCE,219604,1.31326862,103.8479557
ARDMORE II,ARDMORE%20II,259962,1.309801786,103.8275402
THE SANCTUARY @ GEYLANG,THE%20SANCTUARY%20%40%20GEYLANG,398342,1.313457092,103.8864673
REGENT VILLAS,REGENT%20VILLAS,276580,1.322642808,103.7914405
LORONG 14 GEYLANG,LORONG%2014%20GEYLANG,398942,1.31115054,103.8794187
CITY SQUARE RESIDENCES,CITY%20SQUARE%20RESIDENCES,207229,1.311105358,103.8574799
BAODE BUILDING,BAODE%20BUILDING,387942,1.315193326,103.8887176
FYVE DERBYSHIRE,FYVE%20DERBYSHIRE,309461,1.316277368,103.845724
LORONG 31 GEYLANG,LORONG%2031%20GEYLANG,388030,1.315355372,103.8865359
THE DRAYCOTT,THE%20DRAYCOTT,259388,1.310977547,103.8314763
CITY LOFT,CITY%20LOFT,218636,1.31506106,103.8566799
LE SOMME,LE%20SOMME,207876,1.311192191,103.8585039
YUEN SING MANSION,YUEN%20SING%20MANSION,388644,1.313009078,103.8777761
8 SAINT THOMAS,8%20SAINT%20THOMAS,238146,1.29614348,103.8362925
DYNASTY LODGE,DYNASTY%20LODGE,276559,1.323824294,103.7924066
KERRISDALE,KERRISDALE,207855,1.313542304,103.8583794
LORONG 34 GEYLANG,LORONG%2034%20GEYLANG,398231,1.312777988,103.8876516
REGENCY LODGE,REGENCY%20LODGE,248191,1.295655031,103.8270704
THE BLISS,THE%20BLISS,218586,1.30967622,103.8521942
MOOI RESIDENCES,MOOI%20RESIDENCES,278573,1.312577306,103.7983563
CAVENAGH COURT,CAVENAGH%20COURT,229628,1.309908607,103.8431507
PARC EMILY,PARC%20EMILY,228495,1.303510732,103.8491348
BUCKLEY CLASSIQUE,BUCKLEY%20CLASSIQUE,309767,1.317959989,103.8403281
JALAN PARAS,JALAN%20PARAS,418898,1.326141743,103.9174418
HOLLAND PARK,HOLLAND%20PARK,247683,1.309148675,103.8039191
BEAVERTON COURT,BEAVERTON%20COURT,276958,1.316079983,103.7760882
ST FRANCIS COURT,ST%20FRANCIS%20COURT,328071,1.324379663,103.8638339
ONE BALMORAL,ONE%20BALMORAL,259821,1.31387864,103.8297733
CLAREMONT,CLAREMONT,239569,1.296123716,103.837597
JALAN SENANDONG,JALAN%20SENANDONG,288762,1.33622986,103.7893658
KAMPONG JAVA ROAD,KAMPONG%20JAVA%20ROAD,228868,1.31291505,103.8433481
THE RICHMOND,THE%20RICHMOND,327950,1.324924284,103.8644066
MANDALAY MANSION,MANDALAY%20MANSION,308166,1.323849439,103.8492675
NEEM TREE,NEEM%20TREE,329341,1.327366469,103.8515684
CRADELS,CRADELS,328754,1.324671465,103.8539103
SMAILING COURT,SMAILING%20COURT,416851,1.322188378,103.9112367
TRELLIS TOWERS,TRELLIS%20TOWERS,319773,1.330508931,103.8436731
THOMSON 800,THOMSON%20800,298190,1.341102833,103.8387411
LEEDON ROAD,LEEDON%20ROAD,267829,1.312919029,103.7969842
THE ARC AT DRAYCOTT,THE%20ARC%20AT%20DRAYCOTT,259420,1.309214298,103.8308964
THE LADYHILL,THE%20LADYHILL,258670,1.310437673,103.8250401
DALVEY HAUS,DALVEY%20HAUS,259514,1.316262714,103.8251896
GILSTEAD ROAD,GILSTEAD%20ROAD,309079,1.317110239,103.8379568
THE ABERDEEN,THE%20ABERDEEN,329023,1.325534018,103.8654981
MOUNT ECHO PARK,MOUNT%20ECHO%20PARK,248789,1.296231363,103.8204648
ST. FRANCIS ROAD,ST.%20FRANCIS%20ROAD,328069,1.323994435,103.8635468
WU DE BUILDING,WU%20DE%20BUILDING,209946,1.314017252,103.8579644
SUITES @ SURREY,SUITES%20%40%20SURREY,307745,1.315951676,103.8418546
SUNFLOWER MANSIONS,SUNFLOWER%20MANSIONS,398489,1.312081499,103.8850524
SOPHIA HILLS,SOPHIA%20HILLS,228481,1.301809349,103.8471048
WOLSKEL LODGE,WOLSKEL%20LODGE,357992,1.346488948,103.8682912
CROWN CENTRE,CROWN%20CENTRE,269694,1.323026452,103.8111549
KENT RESIDENCES,KENT%20RESIDENCES,219219,1.316005055,103.8520682
ROBERTSON EDGE,ROBERTSON%20EDGE,238010,1.293092292,103.8405386
CAPITOL PARK,CAPITOL%20PARK,299412,1.328057125,103.8186947
CLUNY ROAD,CLUNY%20ROAD,259572,1.309796989,103.8182129
LEONIE PARC VIEW,LEONIE%20PARC%20VIEW,239195,1.298983984,103.8342684
CENTRAL GROVE,CENTRAL%20GROVE,389779,1.31623495,103.884418
DUCHESS RESIDENCES,DUCHESS%20RESIDENCES,266314,1.324296184,103.8016095
THE ACACIAS,THE%20ACACIAS,358249,1.344430814,103.868393
ROSEVALE,ROSEVALE,308362,1.31596822,103.8433915
FORTUNE VIEW,FORTUNE%20VIEW,358198,1.346026118,103.8703363
WING FONG COURT,WING%20FONG%20COURT,398922,1.311734623,103.8788152
CHATSWORTH AVENUE,CHATSWORTH%20AVENUE,249847,1.300804104,103.8205916
THE PEAK @ CAIRNHILL II,THE%20PEAK%20%40%20CAIRNHILL%20II,229789,1.308120384,103.8379408
18 WOODSVILLE,18%20WOODSVILLE,357799,1.329580442,103.8681883
MOONSTONE LANE,MOONSTONE%20LANE,328468,1.327857891,103.8660886
SWISS CLUB ROAD,SWISS%20CLUB%20ROAD,288139,1.343869842,103.790381
DUCHESS PLACE,DUCHESS%20PLACE,269045,1.324258433,103.8023819
GREENWOOD VILLAS,GREENWOOD%20VILLAS,289096,1.333555833,103.8055459
CORONATION VILLE,CORONATION%20VILLE,269499,1.322202346,103.8047256
MON JERVOIS,MON%20JERVOIS,249096,1.293990199,103.8219312
SAM KIANG MANSIONS,SAM%20KIANG%20MANSIONS,238108,1.298401644,103.8353573
FOUR SEASONS PARK,FOUR%20SEASONS%20PARK,249695,1.30365183,103.828238
ESTILO,ESTILO,228071,1.302585394,103.8472293
MACKENZIE 88,MACKENZIE%2088,228697,1.306472541,103.8476827
THE FERNHILL,THE%20FERNHILL,259049,1.314351687,103.8259655
PRINCE OF WALES ROAD,PRINCE%20OF%20WALES%20ROAD,266967,1.324014953,103.8091203
BOON TECK TOWER,BOON%20TECK%20TOWER,329608,1.327718505,103.8503278
SENNETT ESTATE,SENNETT%20ESTATE,349970,1.331974861,103.8746212
STEVENS LOFT,STEVENS%20LOFT,257856,1.317839472,103.8262237
THE MONTANA,THE%20MONTANA,249188,1.296222078,103.8290854
CAMELLIA LODGE,CAMELLIA%20LODGE,388030,1.315355372,103.8865359
GREENDALE AVENUE,GREENDALE%20AVENUE,289497,1.331977198,103.8074843
BRISTOL LODGE,BRISTOL%20LODGE,219855,1.313676341,103.8495093
WATERSCAPE AT CAVENAGH,WATERSCAPE%20AT%20CAVENAGH,229634,1.304562637,103.8408036
CALDECOTT HILL ESTATE,CALDECOTT%20HILL%20ESTATE,299112,1.339897632,103.8311221
EUNOS MANSION,EUNOS%20MANSION,419495,1.319723162,103.9054439
CANBERLIN LODGE,CANBERLIN%20LODGE,399221,1.309446409,103.8769289
GLOUCESTER MANSIONS,GLOUCESTER%20MANSIONS,307947,1.313693156,103.8403875
PARK VALE,PARK%20VALE,288564,1.329995137,103.8116232
BOTANIC GARDENS VIEW,BOTANIC%20GARDENS%20VIEW,257724,1.308586891,103.8198935
RIDOUT ROAD,RIDOUT%20ROAD,248429,1.306265591,103.8027001
EDENZ LOFT,EDENZ%20LOFT,398623,1.312317847,103.8835323
CALARASI,CALARASI,328882,1.323773061,103.8543632
LORONG 22 GEYLANG,LORONG%2022%20GEYLANG,398679,1.311870931,103.8818597
CRYSTAL LODGE,CRYSTAL%20LODGE,398870,1.31139888,103.8796711
MANDALE HEIGHTS,MANDALE%20HEIGHTS,308225,1.324334213,103.849718
GILSTEAD COURT,GILSTEAD%20COURT,309094,1.318058341,103.8396175
JALAN JINTAN,JALAN%20JINTAN,229004,1.305515842,103.8340064
WOODSVILLE CLOSE,WOODSVILLE%20CLOSE,357783,1.329871728,103.8678116
UNIVERSITY PARK,UNIVERSITY%20PARK,297768,1.324441789,103.8177463
CAVAN SUITES,CAVAN%20SUITES,209848,1.310998559,103.8611552
BELIMBING AVENUE,BELIMBING%20AVENUE,349903,1.33238552,103.8755983
PHENG GECK AVENUE,PHENG%20GECK%20AVENUE,348228,1.330874991,103.8694647
LLOYD SIXTYFIVE,LLOYD%20SIXTYFIVE,239114,1.297272947,103.8389403
LORONG 30 GEYLANG,LORONG%2030%20GEYLANG,398363,1.312514781,103.8860739
TREVOSE PLACE,TREVOSE%20PLACE,297988,1.327611564,103.821288
CASA FORTUNA,CASA%20FORTUNA,329980,1.328493588,103.8481694
THE SOLITAIRE,THE%20SOLITAIRE,259866,1.314785751,103.8270625
CAMBRIDGE ROAD,CAMBRIDGE%20ROAD,210043,1.315315951,103.8494542
KEE CHOE AVENUE,KEE%20CHOE%20AVENUE,348943,1.330304438,103.8731926
FARRER ROAD,FARRER%20ROAD,268857,1.317439152,103.8073792
CASSIA VIEW,CASSIA%20VIEW,399746,1.311032761,103.8866301
HOLLAND HILL LODGE,HOLLAND%20HILL%20LODGE,278742,1.309830606,103.8029138
LIV ON WILKIE,LIV%20ON%20WILKIE,228025,1.302807195,103.8488404
CAMDEN PARK,CAMDEN%20PARK,299794,1.327667929,103.8155701
JALAN KEMBOJA,JALAN%20KEMBOJA,349432,1.331555134,103.8734187
RACE COURSE MANSION,RACE%20COURSE%20MANSION,218583,1.309553239,103.852104
THE SCOTTS TOWER,THE%20SCOTTS%20TOWER,228240,1.309990178,103.8354997
BELLERIVE,BELLERIVE,258711,1.316986726,103.830547
FRASER RESIDENCE ORCHARD SINGAPORE,FRASER%20RESIDENCE%20ORCHARD%20SINGAPORE,238524,1.301673056,103.8300287
NOVENA TERRACE,NOVENA%20TERRACE,307919,1.321465994,103.8432925
PALM SPRING,PALM%20SPRING,259324,1.316449755,103.8321303
EVERGREEN VIEW,EVERGREEN%20VIEW,398150,1.313526578,103.8885477
KENTISH LODGE,KENTISH%20LODGE,218814,1.315795391,103.8528045
DALKEITH ROAD,DALKEITH%20ROAD,299643,1.323760885,103.8219845
SKY@ELEVEN,SKY%40ELEVEN,297727,1.331658895,103.8417092
TREVOSE 12,TREVOSE%2012,298031,1.322834086,103.8236347
ONE TREE HILL MANSIONS,ONE%20TREE%20HILL%20MANSIONS,248706,1.300587022,103.8253482
CENTRA STUDIOS,CENTRA%20STUDIOS,388302,1.314440001,103.882324
BAN GUAN PARK,BAN%20GUAN%20PARK,279271,1.321826812,103.7852418
ONE DUSUN RESIDENCES,ONE%20DUSUN%20RESIDENCES,329363,1.326965399,103.8436742
RANGOON 88,RANGOON%2088,218374,1.314381893,103.8542331
CHATELET,CHATELET,258542,1.320484415,103.8243509
EASTPAC BUILDING,EASTPAC%20BUILDING,329898,1.326832937,103.8433497
CLUNY HILL,CLUNY%20HILL,259679,1.317470031,103.8135274
THE INTERWEAVE,THE%20INTERWEAVE,328805,1.325380805,103.8531119
CAIRNHILL RESIDENCES,CAIRNHILL%20RESIDENCES,229775,1.308180497,103.8387051
THE BEAUMONT,THE%20BEAUMONT,239894,1.299025121,103.8362551
HOA NAM BUILDING,HOA%20NAM%20BUILDING,209264,1.312722783,103.859959
HERTFORD MANSION,HERTFORD%20MANSION,219380,1.312810974,103.8483144
BALMORAL GARDENS,BALMORAL%20GARDENS,259889,1.31466215,103.8341782
SIMS EDGE,SIMS%20EDGE,389760,1.316404857,103.8879068
THE IMPERIAL,THE%20IMPERIAL,239621,1.294745418,103.8427288
SANT RITZ,SANT%20RITZ,348196,1.329644103,103.8692331
LILY AVENUE,LILY%20AVENUE,277774,1.330409719,103.7935112
SERANGOON PARK,SERANGOON%20PARK,359203,1.348341686,103.867492
MCMAHON PARK,MCMAHON%20PARK,278356,1.316399965,103.7866835
FIFTH AVENUE CONDOMINIUM,FIFTH%20AVENUE%20CONDOMINIUM,268800,1.329905575,103.7958225
JALAN NOVENA SELATAN,JALAN%20NOVENA%20SELATAN,308585,1.322909168,103.8433006
PROME ROAD,PROME%20ROAD,328311,1.325179771,103.8495431
MOONBEAM WALK,MOONBEAM%20WALK,277246,1.318169373,103.7807774
SIMS DORADO,SIMS%20DORADO,387869,1.315779948,103.890339
KING'S CLOSE,KING%27S%20CLOSE,268201,1.318040766,103.8027199
THE PATERSON,THE%20PATERSON,238518,1.302592849,103.8296758
MOUNT SOPHIA SUITES,MOUNT%20SOPHIA%20SUITES,228163,1.302039393,103.846842
SANNY PARK,SANNY%20PARK,298604,1.325454713,103.8260278
SYED ALWI ROAD,SYED%20ALWI%20ROAD,207630,1.306890597,103.8584016
RESIDENCES @ NOVENA,RESIDENCES%20%40%20NOVENA,308681,1.32293423,103.843059
SAM LEONG ROAD,SAM%20LEONG%20ROAD,207914,1.30927938,103.8566472
CASA AERATA,CASA%20AERATA,398484,1.312323938,103.8850331
JALAN ARUAN,JALAN%20ARUAN,229103,1.313198724,103.8429749
MOONSTONE ROYALE,MOONSTONE%20ROYALE,328468,1.327857891,103.8660886
LORONG 3 GEYLANG,LORONG%203%20GEYLANG,388871,1.317129776,103.8734193
VILLE ROYALE,VILLE%20ROYALE,238352,1.296324256,103.8414516
VENTURA HEIGHTS,VENTURA%20HEIGHTS,268403,1.321368764,103.791605
28 SHELFORD,28%20SHELFORD,288422,1.329304902,103.8119992
PARC SOMME,PARC%20SOMME,207877,1.311356884,103.858599
NOMU,NOMU,229236,1.29980932,103.8469625
LUTHERAN ROAD,LUTHERAN%20ROAD,267752,1.322029982,103.8101184
WARNER COURT,WARNER%20COURT,278966,1.309963932,103.7963307
CITY SUITES,CITY%20SUITES,329699,1.321291434,103.8521795
JADE GARDEN,JADE%20GARDEN,548253,1.365235677,103.8806418
DAISY LODGE,DAISY%20LODGE,359426,1.34443843,103.8675267
RESERVOIR VILLAS,RESERVOIR%20VILLAS,418827,1.329737602,103.9066358
RV SUITES,RV%20SUITES,248289,1.295605203,103.8294069
FERN LODGE,FERN%20LODGE,399266,1.311115807,103.8760682
ORIOLE CRESCENT,ORIOLE%20CRESCENT,288633,1.334187901,103.8043885
THE TRIZON,THE%20TRIZON,276698,1.317407578,103.7777207
NOMA,NOMA,399759,1.311465957,103.8854873
NEW FUTURA,NEW%20FUTURA,239199,1.298124446,103.8340664
SALLIM ROAD,SALLIM%20ROAD,387635,1.325749311,103.8826219
MATLOCK RISE,MATLOCK%20RISE,358547,1.34735693,103.8634712
PINNACLE 16,PINNACLE%2016,328107,1.324497217,103.8462225
LERMIT ROAD,LERMIT%20ROAD,258636,1.310767405,103.8185477
GOODWOOD GARDENS,GOODWOOD%20GARDENS,259889,1.31466215,103.8341782
M21,M21,308208,1.322522208,103.8488911
PARC HAVEN,PARC%20HAVEN,328743,1.323936024,103.8547363
VICTORIA PARK VILLAS,VICTORIA%20PARK%20VILLAS,266115,1.321712894,103.8032797
IDYLLIC SUITES,IDYLLIC%20SUITES,398353,1.312850809,103.8864976
BALMORAL ROAD,BALMORAL%20ROAD,259811,1.317114986,103.834351
MOUNT ROSIE TERRACE,MOUNT%20ROSIE%20TERRACE,308006,1.321900441,103.8341375
BUKIT TIMAH ROAD,BUKIT%20TIMAH%20ROAD,229841,1.310921852,103.842769
LA FLEUR,LA%20FLEUR,398483,1.312444813,103.8845766
REGAL COURT,REGAL%20COURT,328837,1.324672194,103.8528504
TIARA,TIARA,239403,1.295238546,103.8310124
ORION,ORION,258333,1.308605356,103.8276167
BALMORAL HEIGHTS,BALMORAL%20HEIGHTS,259928,1.315062622,103.8347412
8 NAPIER,8%20NAPIER,258502,1.306910371,103.8206827
SIXTH AVENUE,SIXTH%20AVENUE,276484,1.329533906,103.7952317
SUNFLOWER COURT,SUNFLOWER%20COURT,399182,1.310649272,103.8764022
LA NOUVELLE,LA%20NOUVELLE,307811,1.317933469,103.8469183
CENTRA RESIDENCE,CENTRA%20RESIDENCE,388792,1.312846209,103.8759363
CAVENAGH GARDENS,CAVENAGH%20GARDENS,229624,1.305528762,103.8404917
LORNIE ROAD,LORNIE%20ROAD,298699,1.337992734,103.8201378
35 GILSTEAD,35%20GILSTEAD,309079,1.317110239,103.8379568
LADYHILL PARK,LADYHILL%20PARK,259136,1.311515782,103.8241553
TANGLIN HILL,TANGLIN%20HILL,248019,1.301358283,103.817279
STARVILLE,STARVILLE,417472,1.32847505,103.9124558
SHEARES VILLE,SHEARES%20VILLE,249446,1.293374998,103.8254005
CITY PLAZA,CITY%20PLAZA,409286,1.314802267,103.8934775
THE TENERIFFE,THE%20TENERIFFE,275942,1.325998605,103.7917117
PETIT JERVOIS,PETIT%20JERVOIS,247657,1.292997128,103.8231177
HILLCREST ROAD,HILLCREST%20ROAD,286660,1.328246229,103.8055934
LE CRESCENDO,LE%20CRESCENDO,409044,1.330497147,103.8884093
SAGE,SAGE,258463,1.307679254,103.8241712
MANSIONS 28,MANSIONS%2028,388038,1.315257023,103.8871749
GALLOP GABLES,GALLOP%20GABLES,268856,1.31479658,103.8075526
VOLARI,VOLARI,259820,1.314890276,103.8329281
SING AVENUE,SING%20AVENUE,217881,1.315232589,103.8541588
CASA IRRAWADDY,CASA%20IRRAWADDY,329557,1.324937124,103.8460689
SING JOO WALK,SING%20JOO%20WALK,217813,1.315038963,103.8553344
STEVENS SUITES,STEVENS%20SUITES,257940,1.315500474,103.8256242
CHATSWORTH ROAD,CHATSWORTH%20ROAD,249771,1.299805851,103.8209275
TREASURES@G19,TREASURES%40G19,388502,1.313928158,103.8789867
IRIDIUM,IRIDIUM,308349,1.315138127,103.8426402
MACPHERSON GARDEN ESTATE,MACPHERSON%20GARDEN%20ESTATE,368990,1.333279252,103.8817012
THE MORNINGTON,THE%20MORNINGTON,328005,1.326186059,103.8639936
ALEGRIA,ALEGRIA,307669,1.324303006,103.8410181
SWISS CLUB PARK,SWISS%20CLUB%20PARK,288188,1.337086586,103.7913295
ASTRID HILL,ASTRID%20HILL,269927,1.319975341,103.7917639
THE MERASAGA,THE%20MERASAGA,278106,1.311452162,103.7971283
LEWIS ROAD,LEWIS%20ROAD,258612,1.318927711,103.8226113
JALAN KAYU MANIS,JALAN%20KAYU%20MANIS,228969,1.304884777,103.8344531
CHANCERY PARK,CHANCERY%20PARK,309502,1.319289078,103.8366533
GUILLEMARD LANE,GUILLEMARD%20LANE,399872,1.309839928,103.8810193
LITTLE INDIA CONSERVATION AREA,LITTLE%20INDIA%20CONSERVATION%20AREA,209903,1.305327424,103.8526692
SMART SUITES,SMART%20SUITES,387516,1.315144484,103.8840503
WINDY HEIGHTS,WINDY%20HEIGHTS,419594,1.327458716,103.9105765
KIM SIA COURT,KIM%20SIA%20COURT,229017,1.305997558,103.8349331
GALLOP PARK ROAD,GALLOP%20PARK%20ROAD,258994,1.317578518,103.8120512
M66,M66,328498,1.328665241,103.8644957
ENG AUN PARK,ENG%20AUN%20PARK,308650,1.3235357,103.8431244
THE SUNFLOWER,THE%20SUNFLOWER,398415,1.313282829,103.8853803
HORIZON TOWERS,HORIZON%20TOWERS,239228,1.297599082,103.8326778
LEEDON RESIDENCE,LEEDON%20RESIDENCE,266214,1.31323333,103.8011656
TANGLIN HILL CONDOMINIUM,TANGLIN%20HILL%20CONDOMINIUM,247985,1.301840368,103.8175732
THE MARQ ON PATERSON HILL,THE%20MARQ%20ON%20PATERSON%20HILL,238568,1.300305481,103.8289525
MINBU VILLA,MINBU%20VILLA,308185,1.32578698,103.8480593
THE PRINCETON,THE%20PRINCETON,259313,1.316650125,103.8327159
BASSEIN COURT,BASSEIN%20COURT,309836,1.32277422,103.8482485
SIANG KUANG AVENUE,SIANG%20KUANG%20AVENUE,347966,1.329945494,103.8726275
URBANA,URBANA,238427,1.295106398,103.8379086
PARVIS,PARVIS,278746,1.309851999,103.7998896
CHARMING GARDEN,CHARMING%20GARDEN,268157,1.316791905,103.8030217
THE WHITLEY RESIDENCES,THE%20WHITLEY%20RESIDENCES,297716,1.325947652,103.8378786
STUDIO8,STUDIO8,389144,1.311109375,103.873026
ESTA RUBY,ESTA%20RUBY,399839,1.313900065,103.8936172
THE VERMONT ON CAIRNHILL,THE%20VERMONT%20ON%20CAIRNHILL,229747,1.30899132,103.8382847
JALAN MERLIMAU,JALAN%20MERLIMAU,308721,1.323962199,103.8405496
VALLEY MANSION,VALLEY%20MANSION,238636,1.29658018,103.8404723
VILLAGE TOWER,VILLAGE%20TOWER,276955,1.31501746,103.7777994
ELIZABETH HEIGHTS,ELIZABETH%20HEIGHTS,229668,1.307525584,103.8364879
8 RAJA,8%20RAJA,329217,1.327241412,103.8425397
STEVEN'S COURT,STEVEN%27S%20COURT,257865,1.319553251,103.8258219
LICHI AVENUE,LICHI%20AVENUE,348814,1.332976369,103.8767398
THE CHANCERY RESIDENCE,THE%20CHANCERY%20RESIDENCE,309555,1.324163031,103.8380851
RIVERSHIRE,RIVERSHIRE,239229,1.296737448,103.8330057
BOULEVARD 88,BOULEVARD%2088,248655,1.304954321,103.8276275
8 @ MOUNT SOPHIA,8%20%40%20MOUNT%20SOPHIA,228463,1.300964835,103.8459566
LUCKY PLAZA,LUCKY%20PLAZA,238863,1.30446379,103.8340052
LEIGHWOODS,LEIGHWOODS,276956,1.315032876,103.777257
AVA TOWERS,AVA%20TOWERS,329949,1.322225302,103.8517749
ROBIN CLOSE,ROBIN%20CLOSE,258297,1.318779861,103.8268405
QUBE SUITES,QUBE%20SUITES,418804,1.329872096,103.908124
BUKIT TUNGGAL ROAD,BUKIT%20TUNGGAL%20ROAD,309717,1.320589274,103.8399187
WILKIE 48,WILKIE%2048,228059,1.302521032,103.8483682
TREVOSE CRESCENT,TREVOSE%20CRESCENT,298051,1.325087868,103.8245608
SHANGHAI ONE,SHANGHAI%20ONE,248180,1.294848038,103.8275482
FERNHILL CLOSE,FERNHILL%20CLOSE,259203,1.312669572,103.8228143
HALLMARK RESIDENCES,HALLMARK%20RESIDENCES,259346,1.315929915,103.8312179
GOLDHILL RISE,GOLDHILL%20RISE,308878,1.319665115,103.8317604
KING'S ARCADE,KING%27S%20ARCADE,269695,1.323210285,103.8107213
GISBORNE LIGHT,GISBORNE%20LIGHT,259330,1.316249471,103.8304281
THE SIERRA,THE%20SIERRA,277125,1.31810472,103.7803257
HOLLAND RESIDENCES,HOLLAND%20RESIDENCES,275754,1.312362172,103.7933012
JALAN ELOK,JALAN%20ELOK,229069,1.306664983,103.8353709
GREENDALE RISE,GREENDALE%20RISE,289471,1.3322391,103.8071745
BALESTIER ROAD,BALESTIER%20ROAD,329864,1.326782162,103.8450916
FARRER PARK SUITES,FARRER%20PARK%20SUITES,218896,1.313297683,103.8536334
ROBIN ROAD,ROBIN%20ROAD,258179,1.318630555,103.8286377
CITIGATE RESIDENCE,CITIGATE%20RESIDENCE,218437,1.316606809,103.8533256
WING ON LIFE GARDEN,WING%20ON%20LIFE%20GARDEN,259718,1.317497331,103.8316241
BALESTIER 288,BALESTIER%20288,329731,1.322974056,103.852815
CHANGI ROAD,CHANGI%20ROAD,419946,1.320513097,103.916088
THE AXIS,THE%20AXIS,308227,1.324621943,103.8499576
ARDMORE PARK,ARDMORE%20PARK,259961,1.31000596,103.8291933
AMARYLLIS VILLE,AMARYLLIS%20VILLE,307990,1.314782335,103.8419584
PINETREE CONDOMINIUM,PINETREE%20CONDOMINIUM,259856,1.314989878,103.8292938
CHATSWORTH PARK,CHATSWORTH%20PARK,249810,1.299597533,103.8204933
ANDREW ROAD,ANDREW%20ROAD,299958,1.336908154,103.8319104
GOLDHILL VIEW,GOLDHILL%20VIEW,308826,1.319690641,103.8328647
ASTON MANSIONS,ASTON%20MANSIONS,398028,1.313932515,103.8906126
JUI RESIDENCES,JUI%20RESIDENCES,328231,1.326268707,103.8661427
HELIOS RESIDENCES,HELIOS%20RESIDENCES,229816,1.306829451,103.8381646
MERA SPRINGS,MERA%20SPRINGS,219648,1.314775857,103.8466805
BUCKLEY RESIDENCE,BUCKLEY%20RESIDENCE,309762,1.317200288,103.8405328
MORIMASA GARDENS,MORIMASA%20GARDENS,309065,1.316089414,103.8385798
GEYLANG MANSION,GEYLANG%20MANSION,398373,1.31168018,103.8865474
MERA EAST,MERA%20EAST,419977,1.318175268,103.9092921
WILKIE REGENCY,WILKIE%20REGENCY,228030,1.302678726,103.8493081
MOONBEAM DRIVE,MOONBEAM%20DRIVE,277344,1.31818054,103.7825732
THE WATERINA,THE%20WATERINA,398075,1.312830062,103.890194
EWART PARK,EWART%20PARK,279734,1.325458145,103.7836458
THE ELYSIA,THE%20ELYSIA,328688,1.326600816,103.8619582
CASA NOVACREST,CASA%20NOVACREST,228313,1.309148886,103.8380103
STEVENS CLOSE,STEVENS%20CLOSE,257968,1.314246271,103.8238288
TRIBECA,TRIBECA,239497,1.29106603,103.8344989
THE OLIV,THE%20OLIV,259798,1.314836293,103.8315785
LORONG 8 GEYLANG,LORONG%208%20GEYLANG,399096,1.310899715,103.8769725
RE CHARGE @ 303,RE%20CHARGE%20%40%20303,238344,1.295575804,103.8390456
MARGOLIOUTH ROAD,MARGOLIOUTH%20ROAD,258559,1.318555441,103.8228823
THE WOODLEIGH RESIDENCES,THE%20WOODLEIGH%20RESIDENCES,367801,1.339141594,103.8722762
CENTRAL MEADOWS,CENTRAL%20MEADOWS,398240,1.312258259,103.8881618
JALAN ASUHAN,JALAN%20ASUHAN,299362,1.327549146,103.8159704
GREENLEAF ROAD,GREENLEAF%20ROAD,279342,1.320774666,103.7873436
JALAN WANGI,JALAN%20WANGI,349366,1.331089354,103.8740268
WATTEN HILL,WATTEN%20HILL,287156,1.330576987,103.8090042
WATTEN DRIVE,WATTEN%20DRIVE,287640,1.327983695,103.807132
NATHAN PLACE,NATHAN%20PLACE,248747,1.295010814,103.8264368
LEICESTER SUITES,LEICESTER%20SUITES,358844,1.330404583,103.8670932
APLETON VIEW,APLETON%20VIEW,308323,1.319069724,103.8461015
JUNIPER HILL,JUNIPER%20HILL,259334,1.316482034,103.8298972
THE ARCADIA,THE%20ARCADIA,289845,1.333373099,103.8095109
# 1 LOFT,%23%201%20LOFT,398614,1.312763464,103.8835189
SINGA HILLS,SINGA%20HILLS,418109,1.330132629,103.908285
ST. MICHAEL'S ROAD,ST.%20MICHAEL%27S%20ROAD,328002,1.326962238,103.8632122
8 RODYK,8%20RODYK,238216,1.290210504,103.8375618
QUEEN'S ROAD,QUEEN%27S%20ROAD,266748,1.320957001,103.8093888
TANGLIN HILL MEADOWS,TANGLIN%20HILL%20MEADOWS,248018,1.300967417,103.817531
LONG HUA YUAN,LONG%20HUA%20YUAN,418726,1.329115826,103.9084433
NADIA MANSIONS,NADIA%20MANSIONS,329977,1.32814909,103.8484014
DUNEARN ROAD,DUNEARN%20ROAD,309425,1.31621083,103.8369397
TEDGE,TEDGE,419803,1.318067268,103.9088115
WOODSVILLE 28,WOODSVILLE%2028,357774,1.330035979,103.8683521
LIV ON SOPHIA,LIV%20ON%20SOPHIA,229977,1.301067443,103.8479936
DUCHESS AVENUE,DUCHESS%20AVENUE,269105,1.324203099,103.8061775
SKY GREEN,SKY%20GREEN,368237,1.332518468,103.8862288
MOUNT SINAI DRIVE,MOUNT%20SINAI%20DRIVE,277092,1.316654918,103.7818209
SOPHIA VIEW,SOPHIA%20VIEW,228173,1.302440101,103.8469565
LA SUISSE,LA%20SUISSE,288038,1.347807531,103.7904749
RIDGEWOOD,RIDGEWOOD,276694,1.317166024,103.7790204
D'CHATEAU @ SHELFORD,D%27CHATEAU%20%40%20SHELFORD,288417,1.328307058,103.8119326
BOTANIKA,BOTANIKA,258853,1.309843135,103.808137
JALAN SEJARAH,JALAN%20SEJARAH,299068,1.329260015,103.8173373
THE SPINNAKER,THE%20SPINNAKER,307788,1.314083429,103.8439849
JALAN KECHOT,JALAN%20KECHOT,419228,1.322352989,103.9080828
THE PATERSON EDGE,THE%20PATERSON%20EDGE,238518,1.302592849,103.8296758
JERVOIS REGENCY,JERVOIS%20REGENCY,249081,1.294490978,103.8220653
TUDOR VIEW,TUDOR%20VIEW,297959,1.32729069,103.818863
WOOLLERTON DRIVE,WOOLLERTON%20DRIVE,257562,1.31649355,103.8092681
LEEDON PARK,LEEDON%20PARK,267858,1.314861362,103.8011493
ONE CHATSWORTH,ONE%20CHATSWORTH,249745,1.299190258,103.8248691
NAMLY CLOSE,NAMLY%20CLOSE,267591,1.325322554,103.7985551
3 ORCHARD BY-THE-PARK,3%20ORCHARD%20BY-THE-PARK,248653,1.303333389,103.8247067
LENGKONG TIGA,LENGKONG%20TIGA,410110,1.323976876,103.9106896
MYRA,MYRA,358456,1.330562504,103.867885
ST THOMAS VILLE,ST%20THOMAS%20VILLE,238118,1.297535984,103.8360126
OXLEY RISE,OXLEY%20RISE,238714,1.29924812,103.8417089
FERNHILL COTTAGE,FERNHILL%20COTTAGE,259141,1.313361454,103.8234089
PARK INFINIA AT WEE NAM,PARK%20INFINIA%20AT%20WEE%20NAM,308366,1.315212679,103.8435476
SAM LEONG MANSION,SAM%20LEONG%20MANSION,207914,1.30927938,103.8566472
CLUNY PARK,CLUNY%20PARK,257496,1.321936082,103.8138709
ENG APARTMENTS,ENG%20APARTMENTS,388230,1.314185136,103.8829053
SUTTON PLACE,SUTTON%20PLACE,268831,1.313361874,103.8054895
EVER LODGE,EVER%20LODGE,389686,1.314983727,103.8890702
PARC MONDRIAN,PARC%20MONDRIAN,357916,1.336131595,103.8679882
HUA YU MANSION,HUA%20YU%20MANSION,417655,1.328650118,103.9146118
MEIHE GARDENS,MEIHE%20GARDENS,359569,1.345941305,103.8659815
THE MEZZO,THE%20MEZZO,329682,1.320524529,103.8524473
HOLLAND COURT,HOLLAND%20COURT,278576,1.313307618,103.7980393
GUILLEMARD SUITES,GUILLEMARD%20SUITES,438133,1.312519699,103.8917602
JALAN KEMAMAN,JALAN%20KEMAMAN,329319,1.326405222,103.8501423
THE HUNTINGTON,THE%20HUNTINGTON,308095,1.318802242,103.8453187
CHANCERY HILL VILLAS,CHANCERY%20HILL%20VILLAS,307392,1.325390309,103.8387817
SOHO @ FARRER,SOHO%20%40%20FARRER,218605,1.31076356,103.8529528
CHANCERY CORNER,CHANCERY%20CORNER,309495,1.317789664,103.8370059
CANNE LODGE,CANNE%20LODGE,388869,1.314174851,103.8732782
THE SIENA,THE%20SIENA,266637,1.320772821,103.8115103
PERPETUAL APARTMENTS,PERPETUAL%20APARTMENTS,398621,1.312479161,103.8835164
VOGX,VOGX,219499,1.314058269,103.8502487
THIRD AVENUE,THIRD%20AVENUE,266601,1.328049998,103.7969125
LA MAISON,LA%20MAISON,308125,1.31953349,103.8470299
THOMSON VALE,THOMSON%20VALE,307666,1.323983672,103.8414354
ST MARTIN RESIDENCE,ST%20MARTIN%20RESIDENCE,258005,1.306377855,103.8240202
SCULPTURA ARDMORE,SCULPTURA%20ARDMORE,259963,1.308972464,103.8301523
LENGKOK MERAK,LENGKOK%20MERAK,248880,1.302283793,103.8255177
ENG AUN MANSION,ENG%20AUN%20MANSION,307662,1.323625324,103.8420714
SURREY ROAD,SURREY%20ROAD,307750,1.315801762,103.8423088
GOODWOOD RESIDENCE,GOODWOOD%20RESIDENCE,259705,1.314221938,103.8353766
STURDEE VIEW,STURDEE%20VIEW,207851,1.313802861,103.8577639
HILLS APARTMENT,HILLS%20APARTMENT,309029,1.321229729,103.8338592
MEYAPPA CHETTIAR ROAD,MEYAPPA%20CHETTIAR%20ROAD,358456,1.330562504,103.867885
SARINA PARK,SARINA%20PARK,416709,1.320892056,103.9081433
TOMLINSON HEIGHTS,TOMLINSON%20HEIGHTS,247855,1.302934077,103.8269496
SUITES @ SIMS,SUITES%20%40%20SIMS,387544,1.315747261,103.8871882
BARKER TERRACES,BARKER%20TERRACES,307505,1.321627137,103.8355376
THE HYDE,THE%20HYDE,259796,1.314326317,103.8310652
M5,M5,249185,1.295666586,103.8288598
GUILLEMARD VIEW,GUILLEMARD%20VIEW,399850,1.311316081,103.8846159
MANDALAY TOWERS,MANDALAY%20TOWERS,308216,1.323838585,103.8487908
FOO KIM LIN ROAD,FOO%20KIM%20LIN%20ROAD,419683,1.32868372,103.9076009
RICHMOND PARK,RICHMOND%20PARK,229920,1.304962789,103.8364079
THE EQUATORIAL,THE%20EQUATORIAL,257872,1.320305179,103.8248084
PEIRCE VILLAS,PEIRCE%20VILLAS,248561,1.304701843,103.8064218
MIRAGE TOWER,MIRAGE%20TOWER,239426,1.291981118,103.8342619
WILKIE 87,WILKIE%2087,228084,1.303096768,103.846902
JALAN BAHASA,JALAN%20BAHASA,299308,1.327736609,103.8190499
FONTANA HEIGHTS,FONTANA%20HEIGHTS,276957,1.315369555,103.7769426
THE TREVOSE,THE%20TREVOSE,298090,1.32302176,103.8252994
THE BELMONT,THE%20BELMONT,269852,1.313277664,103.7985448
NASSIM JADE,NASSIM%20JADE,258371,1.306633499,103.825945
THE BALMORAL,THE%20BALMORAL,259888,1.315466362,103.8342958
TRE RESIDENCES,TRE%20RESIDENCES,389783,1.317227826,103.8850159
WILKIE 80,WILKIE%2080,228079,1.303135866,103.8477356
URBAN EDGE @ HOLLAND V,URBAN%20EDGE%20%40%20HOLLAND%20V,268686,1.313029132,103.7943755
VANDA ROAD,VANDA%20ROAD,287771,1.331199371,103.7982337
JALAN MASJID,JALAN%20MASJID,418922,1.31959878,103.91261
JALAN KELAWAR,JALAN%20KELAWAR,249276,1.300653321,103.8272668
GARDENVILLE,GARDENVILLE,257654,1.312461731,103.8273029
JALAN ADAT,JALAN%20ADAT,299383,1.328594676,103.8178414
CHIVERTON,CHIVERTON,259343,1.317366275,103.829151
JALAN SEMERBAK,JALAN%20SEMERBAK,329058,1.325604333,103.8629753
CARLISLE COURT,CARLISLE%20COURT,219601,1.313357739,103.8480966
LEMON AVENUE,LEMON%20AVENUE,277804,1.329903752,103.7946337
ESTRIVILLAS,ESTRIVILLAS,268386,1.321483491,103.7924635
FAMILIE MANSIONS,FAMILIE%20MANSIONS,399125,1.309836692,103.8775032
THE REGALIA,THE%20REGALIA,238428,1.295202862,103.8369215
LOFT@HOLLAND,LOFT%40HOLLAND,278580,1.312363682,103.7971688
HAPPY GARDENS,HAPPY%20GARDENS,369902,1.330475159,103.8811913
DERBYSHIRE HEIGHTS,DERBYSHIRE%20HEIGHTS,309459,1.316123412,103.8455188
MATLOCK RESIDENCES,MATLOCK%20RESIDENCES,358569,1.347468502,103.8634588
THE ANSLEY,THE%20ANSLEY,308214,1.323274343,103.848835
PALM LODGE,PALM%20LODGE,387902,1.315205702,103.8899253
MOUNT SINAI AVENUE,MOUNT%20SINAI%20AVENUE,277173,1.316178023,103.7808261
MOSELLA,MOSELLA,358436,1.344510601,103.8620006
MADISON RESIDENCES,MADISON%20RESIDENCES,259724,1.318477789,103.8299506
DE LENTE,DE%20LENTE,278547,1.311769407,103.80171
STUDIO 3,STUDIO%203,248196,1.295709937,103.8275684
LUCIDA,LUCIDA,307780,1.314648303,103.8448191
MACPHERSON ROAD,MACPHERSON%20ROAD,368183,1.332727945,103.8836422
KUIE PONG LOFT,KUIE%20PONG%20LOFT,258159,1.319166793,103.8259355
INTERO,INTERO,358841,1.330249159,103.8673525
NEWTON SUITES,NEWTON%20SUITES,307740,1.316400356,103.8416718
THE GREENWOOD,THE%20GREENWOOD,286995,1.336366488,103.8052525
MONTVIEW,MONTVIEW,277116,1.316682765,103.7773289
SUITES @ EUNOS,SUITES%20%40%20EUNOS,417958,1.320533404,103.9057724
TERRA VILLAS,TERRA%20VILLAS,418681,1.320950643,103.9150107
WOODSVILLE MANSIONS,WOODSVILLE%20MANSIONS,357768,1.329206172,103.8681212
RIVERIA GARDENS,RIVERIA%20GARDENS,238406,1.29728166,103.8346906
GALLOP GREEN,GALLOP%20GREEN,257537,1.315294631,103.8080699
PRISTINE HEIGHTS,PRISTINE%20HEIGHTS,219053,1.316939354,103.8518951
ILLOURA,ILLOURA,278684,1.331289329,103.7903092
LORONG 33 GEYLANG,LORONG%2033%20GEYLANG,387989,1.315624852,103.8879713
ORCHARD BEL AIR,ORCHARD%20BEL%20AIR,248648,1.302318171,103.8249734
JALAN KRIAN,JALAN%20KRIAN,419064,1.324351226,103.9157409
TEN @ SUFFOLK,TEN%20%40%20SUFFOLK,307786,1.314589998,103.8444534
THE LOFT,THE%20LOFT,258468,1.30713481,103.8221188
DUNEARN CLOSE,DUNEARN%20CLOSE,299589,1.325630421,103.8146256
THE EBONY,THE%20EBONY,417216,1.320385158,103.9084872
NAROOMA ROAD,NAROOMA%20ROAD,298296,1.323437469,103.8217522
SIXTH AVENUE CENTRE,SIXTH%20AVENUE%20CENTRE,279883,1.331432307,103.7950007
EMILY RESIDENCE,EMILY%20RESIDENCE,228485,1.304075355,103.8491848
SHELFORD VIEW,SHELFORD%20VIEW,288420,1.328901528,103.8121003
WHITE HOUSE PARK,WHITE%20HOUSE%20PARK,257612,1.316831811,103.8221591
EUHABITAT,EUHABITAT,415823,1.328147888,103.907557
PAVILION 11,PAVILION%2011,309978,1.324586021,103.8481734
ROYALGREEN,ROYALGREEN,279996,1.330820857,103.7941582
LE ARC,LE%20ARC,398481,1.312597953,103.884584
ROYCE RESIDENCES,ROYCE%20RESIDENCES,399242,1.311287604,103.8762859
SIGNATURE AT LEWIS,SIGNATURE%20AT%20LEWIS,258617,1.320843794,103.8232062
WATTEN ESTATE ROAD,WATTEN%20ESTATE%20ROAD,287514,1.326647005,103.8092675
HOLT RESIDENCES,HOLT%20RESIDENCES,249444,1.294042755,103.8260678
THE CAPRI,THE%20CAPRI,257864,1.318347904,103.8260655
LEEDON GREEN,LEEDON%20GREEN,266223,1.31243992,103.8034025
PARC ESTA,PARC%20ESTA,408974,1.318276499,103.9026196
BRADDELL HEIGHTS ESTATE,BRADDELL%20HEIGHTS%20ESTATE,359666,1.345542295,103.8634034
JALAN SAYANG,JALAN%20SAYANG,418650,1.322246875,103.9153196
E7 LODGE,E7%20LODGE,416953,1.321675203,103.9105928
NATHAN SUITES,NATHAN%20SUITES,248743,1.295221233,103.8271496
LEONIE HILL RESIDENCES,LEONIE%20HILL%20RESIDENCES,239191,1.297327602,103.8332219
D' IXORAS,D%27%20IXORAS,308172,1.324113345,103.8490407
ASTRID MEADOWS,ASTRID%20MEADOWS,269258,1.318963008,103.7940867
SUNNY GROVE,SUNNY%20GROVE,387914,1.315582612,103.889462
LORONG 24A GEYLANG,LORONG%2024A%20GEYLANG,398556,1.312258245,103.8838658
THE NASSIM,THE%20NASSIM,258468,1.30713481,103.8221188
THE METZ,THE%20METZ,239864,1.299388099,103.8369591
SIMS RESIDENCES,SIMS%20RESIDENCES,387882,1.316074129,103.8910928
WHARTON VALE,WHARTON%20VALE,228187,1.301988741,103.8483311
FIRST AVENUE,FIRST%20AVENUE,268738,1.329113751,103.8005933
CAIRNHILL HEIGHTS,CAIRNHILL%20HEIGHTS,229668,1.307525584,103.8364879
TOWNHOUSE APARTMENTS,TOWNHOUSE%20APARTMENTS,229627,1.309243391,103.8426106
THE BELLEFORTE,THE%20BELLEFORTE,329974,1.327234271,103.84514
JALAN SUKA,JALAN%20SUKA,399414,1.312008205,103.8831763
THE HORIZON,THE%20HORIZON,249441,1.294511936,103.8267582
ST FRANCIS LODGE,ST%20FRANCIS%20LODGE,328074,1.324804139,103.8641791
HOLLAND GARDENS,HOLLAND%20GARDENS,277243,1.318106992,103.7811872
PATERSON RESIDENCE,PATERSON%20RESIDENCE,238549,1.300087543,103.8300709
THE BOULEVARD RESIDENCE,THE%20BOULEVARD%20RESIDENCE,249691,1.303927783,103.8287702
KIM LIN PARK,KIM%20LIN%20PARK,248874,1.301667455,103.8255046
HOLLAND GROVE WALK,HOLLAND%20GROVE%20WALK,278753,1.314485999,103.7809596
368 THOMSON,368%20THOMSON,298127,1.327091332,103.8419786
JALAN ISTIMEWA,JALAN%20ISTIMEWA,278388,1.316174205,103.7875114
ROBIN WALK,ROBIN%20WALK,258148,1.319382835,103.826447
EURO-ASIA APARTMENTS,EURO-ASIA%20APARTMENTS,328170,1.323334222,103.8638476
CEDAR AVENUE,CEDAR%20AVENUE,349704,1.334914287,103.8760353
OASIS @ MULBERRY,OASIS%20%40%20MULBERRY,348443,1.3318512,103.877899
THE LUMOS,THE%20LUMOS,239220,1.299066008,103.8320686
THE TRESOR,THE%20TRESOR,269030,1.324043146,103.8070283
D - HERITAGE APARTMENTS,D%20-%20HERITAGE%20APARTMENTS,417659,1.328311801,103.9126742
CABLE ROAD,CABLE%20ROAD,249888,1.295693612,103.824836
GEYLANG ROAD,GEYLANG%20ROAD,389547,1.314128766,103.8884793
WOLSKEL ROAD,WOLSKEL%20ROAD,357992,1.346488948,103.8682912
HOLLAND GROVE LANE,HOLLAND%20GROVE%20LANE,278831,1.314351407,103.7816212
NAMLY CRESCENT,NAMLY%20CRESCENT,267554,1.326511468,103.7947556
VISTA RESIDENCES,VISTA%20RESIDENCES,329426,1.328606566,103.8432834
KIMNAN PARK,KIMNAN%20PARK,416428,1.325178562,103.9148413
CLYDES RESIDENCE,CLYDES%20RESIDENCE,219054,1.317349412,103.8522129
TYRWHITT 139,TYRWHITT%20139,207557,1.311577219,103.8599411
THE TRUMPS,THE%20TRUMPS,419154,1.320026103,103.9134873
FERNHILL CRESCENT,FERNHILL%20CRESCENT,259185,1.312432949,103.8240909
VAN HOLLAND,VAN%20HOLLAND,278585,1.312897352,103.7948899
FOURTH AVENUE,FOURTH%20AVENUE,268679,1.329314593,103.7968513
KENG LEE VIEW,KENG%20LEE%20VIEW,219268,1.313964575,103.8459769
STELLAR RV,STELLAR%20RV,248306,1.295104587,103.8285114
THE SCENIC @ BRADDELL,THE%20SCENIC%20%40%20BRADDELL,359944,1.343453615,103.8688577
AVALON,AVALON,259986,1.312764293,103.8290964
CYAN,CYAN,258710,1.317247575,103.8299726
VERDURE,VERDURE,258865,1.30899937,103.8073023
KINGSTON TERRACE,KINGSTON%20TERRACE,418935,1.319883339,103.9128626
CAIRNHILL PLAZA,CAIRNHILL%20PLAZA,229666,1.306855264,103.8368433
RIO GARDENS,RIO%20GARDENS,329001,1.326612851,103.8643397
WING FONG MANSIONS,WING%20FONG%20MANSIONS,398924,1.310575522,103.8790789
JALAN ILMU,JALAN%20ILMU,299217,1.328597104,103.8187656
SOMMERVILLE GRANDEUR,SOMMERVILLE%20GRANDEUR,259279,1.313866544,103.8064572
GILSTEAD MANSION,GILSTEAD%20MANSION,309101,1.319206173,103.8401729
DUNEARN SUITES,DUNEARN%20SUITES,289609,1.324733513,103.8107247
THE RESIDENCES AT BARKER,THE%20RESIDENCES%20AT%20BARKER,309935,1.321169364,103.8341442
GREENLEAF AVENUE,GREENLEAF%20AVENUE,279606,1.324461904,103.7872954
CAMBORNE ROAD,CAMBORNE%20ROAD,299864,1.325744175,103.8214784
JALAN TENANG,JALAN%20TENANG,277945,1.316623753,103.7872797
DUCHESS GARDEN,DUCHESS%20GARDEN,269111,1.323783457,103.8051718
38 JERVOIS,38%20JERVOIS,249078,1.294094465,103.8227156
ONE AKYAB,ONE%20AKYAB,309972,1.322727933,103.8476588
VIVACE,VIVACE,238011,1.292944884,103.8407021
ATTITUDE AT KIM YAM,ATTITUDE%20AT%20KIM%20YAM,239319,1.295516912,103.8389129
DUNEARN 386,DUNEARN%20386,289599,1.32443999,103.8118363
LUTHERAN TOWERS,LUTHERAN%20TOWERS,266625,1.321288291,103.8120791
PAPILLON,PAPILLON,329089,1.326922559,103.8492416
THE CENTREPOINT,THE%20CENTREPOINT,238844,1.301978369,103.839759
MULBERRY TREE,MULBERRY%20TREE,308092,1.318184399,103.8463942
AMPAS APARTMENTS,AMPAS%20APARTMENTS,329506,1.326194872,103.8510668
BALMORAL GATE,BALMORAL%20GATE,259811,1.317114986,103.834351
PARK PLACE RESIDENCES AT PLQ,PARK%20PLACE%20RESIDENCES%20AT%20PLQ,409056,1.316756341,103.893079
QUEENSBERRY LODGE,QUEENSBERRY%20LODGE,248185,1.295065956,103.8274228
LORONG SALLEH,LORONG%20SALLEH,416755,1.323994965,103.9065251
REGAL 35,REGAL%2035,387945,1.315672004,103.8883506
KASTURINA LODGE,KASTURINA%20LODGE,248969,1.296403005,103.8297583
LORONG BUNGA,LORONG%20BUNGA,348703,1.331699508,103.873854
WATTEN RISE,WATTEN%20RISE,287332,1.328703977,103.8086254
SUITES @ OWEN,SUITES%20%40%20OWEN,218926,1.31409213,103.8529465
HONOLULU TOWER,HONOLULU%20TOWER,259719,1.318090734,103.8310766
NOVENA HILL,NOVENA%20HILL,308651,1.323765682,103.8433954
LOTUS AVENUE,LOTUS%20AVENUE,277613,1.329196217,103.7930432
POLLEN & BLEU,POLLEN%20%26%20BLEU,259298,1.314413614,103.8071665
QUINTERRA,QUINTERRA,278636,1.318630818,103.7806868
10 SHELFORD,10%20SHELFORD,288353,1.325808254,103.8125169
LIM TAI SEE WALK,LIM%20TAI%20SEE%20WALK,267812,1.322002949,103.7923083
WATTEN VIEW,WATTEN%20VIEW,287156,1.330576987,103.8090042
EBER GARDENS,EBER%20GARDENS,239757,1.298748657,103.8403152
CUSCADEN RESIDENCES,CUSCADEN%20RESIDENCES,249723,1.304900087,103.8268499
SOMMERVILLE REGENCY,SOMMERVILLE%20REGENCY,358718,1.345978423,103.8680099
EMERALD APARTMENTS,EMERALD%20APARTMENTS,229417,1.305141227,103.8396587
8@WOODLEIGH,8%40WOODLEIGH,357903,1.336408255,103.8697505
PEACE CENTRE/MANSIONS,PEACE%20CENTRE/MANSIONS,228149,1.301070538,103.8491763
ASTRIDVILLE,ASTRIDVILLE,268618,1.321322357,103.794118
GROVE DRIVE,GROVE%20DRIVE,279055,1.313199914,103.7830611
LINDEN DRIVE,LINDEN%20DRIVE,288713,1.335638765,103.8024173
KHEAM HOCK GARDENS,KHEAM%20HOCK%20GARDENS,298808,1.328659234,103.820422
THE OCTET,THE%20OCTET,398628,1.312069991,103.8835624
DE PARADISO,DE%20PARADISO,328644,1.324082891,103.8506293
HILLCREST PARK,HILLCREST%20PARK,288909,1.328870888,103.8070193
GALLOP ROAD,GALLOP%20ROAD,258989,1.315089602,103.8124298
DUKE'S GARDEN,DUKE%27S%20GARDEN,268995,1.323966328,103.8078919
SUNDRIDGE PARK ROAD,SUNDRIDGE%20PARK%20ROAD,358150,1.346797164,103.8646516
PARK HOUSE,PARK%20HOUSE,257612,1.316831811,103.8221591
EIGHT RIVERSUITES,EIGHT%20RIVERSUITES,338532,1.321778748,103.8645289
MARTINA MANSIONS,MARTINA%20MANSIONS,259710,1.317478129,103.8332827
THE VIRIDIAN,THE%20VIRIDIAN,329507,1.326010519,103.8516268
THE MARBELLA,THE%20MARBELLA,276959,1.314256909,103.7784488
CITY REGENCY,CITY%20REGENCY,327977,1.326380915,103.8638407
NEU AT NOVENA,NEU%20AT%20NOVENA,308140,1.319614866,103.8459692
MARTIN NO 38,MARTIN%20NO%2038,239059,1.2921332,103.8380649
RANGOON VIEW,RANGOON%20VIEW,218460,1.317823909,103.8522251
JALAN RAYA,JALAN%20RAYA,368584,1.328202038,103.8839837
TREASURE LOFT,TREASURE%20LOFT,307856,1.318711816,103.8496695
LORONG 36 GEYLANG,LORONG%2036%20GEYLANG,398139,1.313829267,103.8881199
PENROSE,PENROSE,387400,1.318837199,103.8796341
CORONATION DRIVE,CORONATION%20DRIVE,269587,1.323081982,103.8049717
HOLLAND MEWS,HOLLAND%20MEWS,258868,1.309538121,103.8062603
NEW COURT,NEW%20COURT,329387,1.328128686,103.8436751
HARLYN ROAD,HARLYN%20ROAD,299455,1.324689805,103.8235281
HILLCREST VILLA,HILLCREST%20VILLA,286660,1.328246229,103.8055934
MELOSA,MELOSA,398432,1.312537332,103.8854028
SOPHIA VILLE,SOPHIA%20VILLE,228184,1.303014683,103.8464438
OUE TWIN PEAKS,OUE%20TWIN%20PEAKS,239197,1.2991678,103.8334276
CITY STUDIOS,CITY%20STUDIOS,218745,1.310122337,103.8528148
CHANCERY ESQUIRE,CHANCERY%20ESQUIRE,309494,1.317654629,103.836535
PROXIMO,PROXIMO,258204,1.317362239,103.8287532
ZEDGE,ZEDGE,309973,1.322421724,103.848172
KIM KEAT LODGE,KIM%20KEAT%20LODGE,328843,1.324205805,103.8524715
JALAN NOVENA UTARA,JALAN%20NOVENA%20UTARA,308497,1.324009812,103.8423286
CRYSTAL COURT,CRYSTAL%20COURT,248342,1.29414631,103.826988
JALAN JERMIN,JALAN%20JERMIN,369029,1.330729026,103.8833389
PARC CENTENNIAL,PARC%20CENTENNIAL,228867,1.31317509,103.8437959
THE TRILLIUM,THE%20TRILLIUM,239435,1.294747276,103.8326239
OXLEY EDGE,OXLEY%20EDGE,238349,1.295631027,103.8416151
WILKIE COURT,WILKIE%20COURT,228089,1.30324013,103.8467734
THE INSPIRA,THE%20INSPIRA,239949,1.291883736,103.8389456
OKIO,OKIO,329714,1.322133312,103.8532168
SIMS AVENUE,SIMS%20AVENUE,387541,1.31645119,103.8872191
LA BRISA,LA%20BRISA,398453,1.311904191,103.8853694
CAIRNHILL ASTORIA,CAIRNHILL%20ASTORIA,229742,1.307031315,103.8394459
DUBLIN LODGE,DUBLIN%20LODGE,239820,1.297786399,103.840247
BARTLEY RIDGE,BARTLEY%20RIDGE,368063,1.341091275,103.8814576
WARINGIN WALK,WARINGIN%20WALK,416291,1.321473764,103.9188957
ORCHARD COURT,ORCHARD%20COURT,238621,1.298417338,103.8414054
SOLEIL @ SINARAN,SOLEIL%20%40%20SINARAN,307469,1.319295776,103.845484
RIVERSIDE MELODIES,RIVERSIDE%20MELODIES,327995,1.327308328,103.8644768
THE SIXTH AVENUE RESIDENCES,THE%20SIXTH%20AVENUE%20RESIDENCES,276545,1.327330895,103.7927369
LE WILKIE,LE%20WILKIE,228070,1.302845307,103.8479031
THE FORD @ HOLLAND,THE%20FORD%20%40%20HOLLAND,268725,1.313886369,103.7935895
SHELFORD GREEN,SHELFORD%20GREEN,288352,1.324565546,103.812187
PASADENA,PASADENA,309470,1.315244718,103.8454506
JALAN AMPANG,JALAN%20AMPANG,268619,1.320912204,103.7947246
JALAN UNGGAS,JALAN%20UNGGAS,298930,1.325205303,103.8181584
VETRO,VETRO,328703,1.327518848,103.8625649
OXFORD SUITES,OXFORD%20SUITES,218817,1.31554374,103.8524894
THE THOMSON DUPLEX,THE%20THOMSON%20DUPLEX,307668,1.324074399,103.841022
THE LATTIZ,THE%20LATTIZ,416751,1.324231806,103.9062345
RIVERGATE,RIVERGATE,238258,1.29204842,103.8363952
KENG LEE COURT,KENG%20LEE%20COURT,219250,1.313053279,103.8475854
THE AVENIR,THE%20AVENIR,238438,1.294240857,103.8367673
MOUNT ROSIE GARDEN,MOUNT%20ROSIE%20GARDEN,309031,1.321519513,103.833947
ADAM PLACE,ADAM%20PLACE,289880,1.325222898,103.8130216
CASA JERVOIS,CASA%20JERVOIS,249055,1.294735536,103.8189893
HILLTOPS,HILLTOPS,229808,1.307333225,103.8384806
15 HOLLAND HILL,15%20HOLLAND%20HILL,278735,1.309649563,103.8008705
LEEDON 2,LEEDON%202,267829,1.312919029,103.7969842
SIXTEEN35 RESIDENCES,SIXTEEN35%20RESIDENCES,387946,1.31547407,103.8888276
ONE DEVONSHIRE,ONE%20DEVONSHIRE,239896,1.297192855,103.8374709
SIAK KEW AVENUE,SIAK%20KEW%20AVENUE,348084,1.33004727,103.8705768
GARLICK AVENUE,GARLICK%20AVENUE,275826,1.328035686,103.7918451
KENANGA AVENUE,KENANGA%20AVENUE,348912,1.332698682,103.8758327
CASABELLA,CASABELLA,266324,1.323583153,103.799616
MOULMEIN COURT,MOULMEIN%20COURT,308078,1.318881387,103.8501048
LORONG 17 GEYLANG,LORONG%2017%20GEYLANG,388547,1.313296907,103.8786376
LORONG 42 GEYLANG,LORONG%2042%20GEYLANG,398023,1.314204236,103.890118
COSY LODGE,COSY%20LODGE,388029,1.315194965,103.886574
GROSVENOR VIEW,GROSVENOR%20VIEW,417611,1.327687952,103.9118448
SUITES @ SHREWSBURY,SUITES%20%40%20SHREWSBURY,307842,1.318198996,103.8489061
ROBERTSON 100,ROBERTSON%20100,238250,1.291112089,103.8378213
LORONG BIAWAK,LORONG%20BIAWAK,358758,1.347427066,103.8699968
BISHOPSGATE RESIDENCES,BISHOPSGATE%20RESIDENCES,247676,1.29843407,103.8245188
ORCHID VILLAGE,ORCHID%20VILLAGE,287869,1.333580778,103.8006156
ASPEN HEIGHTS,ASPEN%20HEIGHTS,238309,1.294715959,103.8400512
METRO LOFT,METRO%20LOFT,388158,1.314170315,103.8835622
CENTENNIA SUITES,CENTENNIA%20SUITES,239427,1.29293392,103.83359
HOLLAND TOWER,HOLLAND%20TOWER,249510,1.307574808,103.8028912
BIRMINGHAM MANSIONS,BIRMINGHAM%20MANSIONS,307682,1.31773262,103.8449092
LENGKONG EMPAT,LENGKONG%20EMPAT,417619,1.327429289,103.9122168
OLD HOLLAND ROAD,OLD%20HOLLAND%20ROAD,278670,1.33011304,103.7878816
SIN CHUAN GARDEN,SIN%20CHUAN%20GARDEN,416289,1.321626219,103.9190493
LEONIE SUITES,LEONIE%20SUITES,239223,1.29876715,103.8317743
RIVIERA 38,RIVIERA%2038,328712,1.328163379,103.863446
EDEN PARK,EDEN%20PARK,277548,1.329742099,103.7920836
WANG LODGE,WANG%20LODGE,399264,1.311329693,103.8760284
ESCADA VIEW,ESCADA%20VIEW,417657,1.328993447,103.9134773
NICOLE GREEN,NICOLE%20GREEN,399710,1.309304585,103.879851
ANGULLIA PARK RESIDENCES @ ORCHARD,ANGULLIA%20PARK%20RESIDENCES%20%40%20ORCHARD,249696,1.303613916,103.8292422
JERVOIS ROAD,JERVOIS%20ROAD,248992,1.292627437,103.8256153
THE RITZ-CARLTON RESIDENCES SINGAPORE CA,THE%20RITZ-CARLTON%20RESIDENCES%20SINGAPORE%20CA,229721,1.308031263,103.8361831
RIVER VALLEY COURT,RIVER%20VALLEY%20COURT,238370,1.295949025,103.8378072
JADE MANSION,JADE%20MANSION,267833,1.313328678,103.797418
NEWTON IMPERIAL,NEWTON%20IMPERIAL,307956,1.315348738,103.841448
LORONG 20 GEYLANG,LORONG%2020%20GEYLANG,398748,1.311714047,103.8811431
MUTIARA CREST,MUTIARA%20CREST,249183,1.295868405,103.8293762
SUNVILLE,SUNVILLE,328004,1.327314391,103.8642258
ATRIUM RESIDENCES,ATRIUM%20RESIDENCES,389468,1.31357032,103.8856164
BALESTIER REGENCY,BALESTIER%20REGENCY,329505,1.325323602,103.8517764
HOLLAND SUITES,HOLLAND%20SUITES,278568,1.311939612,103.7993461
CRESCENT BUILDING,CRESCENT%20BUILDING,329924,1.323780451,103.8521876
DUKES RESIDENCE,DUKES%20RESIDENCE,268908,1.321491681,103.8116295
GUILLEMARD EDGE,GUILLEMARD%20EDGE,398371,1.312004437,103.8859494
MIRO,MIRO,308365,1.313933619,103.8423804
URBAN TREASURES,URBAN%20TREASURES,419535,1.329367202,103.9057913
LAVENDER STREET,LAVENDER%20STREET,338771,1.313378622,103.8611652
THE TRE VER,THE%20TRE%20VER,358399,1.336492339,103.8656289
JALAN PUNAI,JALAN%20PUNAI,418812,1.329811159,103.9086224
WATTEN ESTATE,WATTEN%20ESTATE,287514,1.326647005,103.8092675
MUTIARA VIEW,MUTIARA%20VIEW,249191,1.295375813,103.8284843
THE SPRINGS,THE%20SPRINGS,308144,1.31911758,103.846656
MUSWELL HILL,MUSWELL%20HILL,358426,1.344394079,103.8623316
LASIA AVENUE,LASIA%20AVENUE,277847,1.329492569,103.7938997
KING'S ROAD,KING%27S%20ROAD,268050,1.322734959,103.8107954
CAIRNHILL CREST,CAIRNHILL%20CREST,229814,1.30582154,103.8388479
GLENTREES,GLENTREES,277058,1.316930568,103.7850395
BALMORAL HILLS,BALMORAL%20HILLS,259845,1.316323957,103.8281523
URBAN LOFTS,URBAN%20LOFTS,218375,1.314163835,103.8539055
ST MARTIN'S APARTMENT,ST%20MARTIN%27S%20APARTMENT,257988,1.305720711,103.8248308
CARLISLE ROAD,CARLISLE%20ROAD,219597,1.314162988,103.848593
WILKIE APARTMENTS,WILKIE%20APARTMENTS,228064,1.302255019,103.847854
CHELSEA GARDENS,CHELSEA%20GARDENS,257663,1.313003008,103.8271515
28 IMPERIAL RESIDENCES,28%20IMPERIAL%20RESIDENCES,398495,1.311780119,103.8846058
THE CENTRIO,THE%20CENTRIO,329552,1.325314331,103.8461329
SARKIES ROAD,SARKIES%20ROAD,258129,1.313749258,103.8359752
CITY EDGE,CITY%20EDGE,308133,1.319533289,103.846626
33 RESIDENCES,33%20RESIDENCES,398366,1.311980835,103.8865327
DRAGON VIEW PARK,DRAGON%20VIEW%20PARK,249207,1.296756361,103.8280426
ASTON LODGE,ASTON%20LODGE,399116,1.310130611,103.8770754
HERITAGE APARTMENTS,HERITAGE%20APARTMENTS,259960,1.308665645,103.8290814
# 1 SUITES,%23%201%20SUITES,398721,1.312390293,103.8815041
BALESTIER POINT,BALESTIER%20POINT,329727,1.322704469,103.8519711
THE LEVELZ,THE%20LEVELZ,268836,1.313532335,103.8049967
JALAN BELANGKAS,JALAN%20BELANGKAS,369395,1.329561545,103.883249
NEWTON ONE,NEWTON%20ONE,307943,1.314049868,103.8394528
MOONSTONE VIEW,MOONSTONE%20VIEW,328496,1.327274166,103.8656105
NAMLY DRIVE,NAMLY%20DRIVE,267483,1.323559676,103.7956084
CASA EMERALD,CASA%20EMERALD,398311,1.312126841,103.8872202
LEONIE TOWERS,LEONIE%20TOWERS,239227,1.297150283,103.8319582
DAISY SUITES,DAISY%20SUITES,359455,1.343848762,103.8684281
TANGLIN RESIDENCES,TANGLIN%20RESIDENCES,258010,1.306080455,103.8239206
BERRIMA ROAD,BERRIMA%20ROAD,297633,1.326076193,103.8221384
HOOT KIAM ROAD,HOOT%20KIAM%20ROAD,249405,1.296482473,103.8300032
CHANCERY LANE,CHANCERY%20LANE,309568,1.323560739,103.8387503
THE CHAMPAGNE,THE%20CHAMPAGNE,419833,1.318048572,103.9106669
JALAN PANDAN,JALAN%20PANDAN,288789,1.33325757,103.8018775
JALAN CHENGKEK,JALAN%20CHENGKEK,369255,1.330771869,103.884269
THE ADDITION,THE%20ADDITION,358461,1.330756807,103.8672306
ONE DRAYCOTT,ONE%20DRAYCOTT,259385,1.310084607,103.8307157
BLISS LOFT,BLISS%20LOFT,328933,1.323229455,103.8529293
DYNASTY GARDEN,DYNASTY%20GARDEN,276567,1.323047353,103.7924808
THE ASANA,THE%20ASANA,266745,1.321886138,103.8110662
HOLLANDSWOOD COURT,HOLLANDSWOOD%20COURT,249473,1.310002498,103.8036347
1 MOULMEIN RISE,1%20MOULMEIN%20RISE,308143,1.31908637,103.8470536
MARTIN PLACE RESIDENCES,MARTIN%20PLACE%20RESIDENCES,237990,1.29416113,103.8380583
R MAISON,R%20MAISON,357699,1.343323569,103.8698482
DE ROYALE,DE%20ROYALE,329113,1.328149116,103.8494199
ELEVEN @ HOLLAND,ELEVEN%20%40%20HOLLAND,275764,1.328691091,103.7897422
OPAL SUITES,OPAL%20SUITES,328396,1.327519156,103.8672982
THE CENTREN,THE%20CENTREN,388153,1.313939998,103.883561
NOVENA COURT,NOVENA%20COURT,308604,1.322869193,103.8419851
BEAU VISTA,BEAU%20VISTA,419161,1.325361475,103.9126107
CHANCERY HILL ROAD,CHANCERY%20HILL%20ROAD,307392,1.325390309,103.8387817
LYNWOOD EIGHT,LYNWOOD%20EIGHT,358653,1.345156148,103.8629676
SUMMER VIEW,SUMMER%20VIEW,398986,1.311709153,103.8784632
